%time,field.header.seq,field.header.stamp,field.header.frame_id,field.orientation.x,field.orientation.y,field.orientation.z,field.orientation.w,field.orientation_covariance0,field.orientation_covariance1,field.orientation_covariance2,field.orientation_covariance3,field.orientation_covariance4,field.orientation_covariance5,field.orientation_covariance6,field.orientation_covariance7,field.orientation_covariance8,field.angular_velocity.x,field.angular_velocity.y,field.angular_velocity.z,field.angular_velocity_covariance0,field.angular_velocity_covariance1,field.angular_velocity_covariance2,field.angular_velocity_covariance3,field.angular_velocity_covariance4,field.angular_velocity_covariance5,field.angular_velocity_covariance6,field.angular_velocity_covariance7,field.angular_velocity_covariance8,field.linear_acceleration.x,field.linear_acceleration.y,field.linear_acceleration.z,field.linear_acceleration_covariance0,field.linear_acceleration_covariance1,field.linear_acceleration_covariance2,field.linear_acceleration_covariance3,field.linear_acceleration_covariance4,field.linear_acceleration_covariance5,field.linear_acceleration_covariance6,field.linear_acceleration_covariance7,field.linear_acceleration_covariance8
1659928739724178388,74466,1659928739724178388,imu,-0.001401,-0.009849,0.708542,0.705597,0.0,0.0,0.0,0.0,0.0,0.0,0.0,0.0,0.0,0.000472251189005,0.00112482979633,0.000731607115851,0.0,0.0,0.0,0.0,0.0,0.0,0.0,0.0,0.0,0.13311,-0.147346,9.787638,0.0,0.0,0.0,0.0,0.0,0.0,0.0,0.0,0.0
1659928739729339703,74467,1659928739729339703,imu,-0.001392,-0.009846,0.708543,0.705597,0.0,0.0,0.0,0.0,0.0,0.0,0.0,0.0,0.0,0.00500944401907,-0.00231833829872,0.000365890824388,0.0,0.0,0.0,0.0,0.0,0.0,0.0,0.0,0.0,0.12586,-0.159219,9.785202,0.0,0.0,0.0,0.0,0.0,0.0,0.0,0.0,0.0
1659928739734255734,74468,1659928739734255734,imu,-0.001385,-0.009844,0.708544,0.705596,0.0,0.0,0.0,0.0,0.0,0.0,0.0,0.0,0.0,0.000458637620839,-0.00041362557943,-0.00110842370136,0.0,0.0,0.0,0.0,0.0,0.0,0.0,0.0,0.0,0.138027,-0.137986,9.806747,0.0,0.0,0.0,0.0,0.0,0.0,0.0,0.0,0.0
1659928739739226101,74469,1659928739739226101,imu,-0.001382,-0.009843,0.708545,0.705595,0.0,0.0,0.0,0.0,0.0,0.0,0.0,0.0,0.0,0.00167317734072,-0.00168239267917,0.00131095170776,0.0,0.0,0.0,0.0,0.0,0.0,0.0,0.0,0.0,0.13784,-0.16425,9.80653,0.0,0.0,0.0,0.0,0.0,0.0,0.0,0.0,0.0
1659928739744328050,74470,1659928739744328050,imu,-0.001377,-0.009845,0.708545,0.705595,0.0,0.0,0.0,0.0,0.0,0.0,0.0,0.0,0.0,-0.00106208520972,-0.000398964813713,-0.00170605934382,0.0,0.0,0.0,0.0,0.0,0.0,0.0,0.0,0.0,0.121349,-0.118539,9.778422,0.0,0.0,0.0,0.0,0.0,0.0,0.0,0.0,0.0
1659928739749288919,74471,1659928739749288919,imu,-0.001374,-0.009847,0.708545,0.705594,0.0,0.0,0.0,0.0,0.0,0.0,0.0,0.0,0.0,0.000755745019406,-0.0022903781241,0.000399209159809,0.0,0.0,0.0,0.0,0.0,0.0,0.0,0.0,0.0,0.13552,-0.152256,9.801879,0.0,0.0,0.0,0.0,0.0,0.0,0.0,0.0,0.0
1659928739754221223,74472,1659928739754221223,imu,-0.001371,-0.009845,0.708545,0.705595,0.0,0.0,0.0,0.0,0.0,0.0,0.0,0.0,0.0,0.00139441335259,0.00298189502703,0.000738239367009,0.0,0.0,0.0,0.0,0.0,0.0,0.0,0.0,0.0,0.126067,-0.142685,9.806786,0.0,0.0,0.0,0.0,0.0,0.0,0.0,0.0,0.0
1659928739759174898,74473,1659928739759174898,imu,-0.001372,-0.00984,0.708546,0.705594,0.0,0.0,0.0,0.0,0.0,0.0,0.0,0.0,0.0,-0.00165891800073,0.000520143023679,0.000438897946999,0.0,0.0,0.0,0.0,0.0,0.0,0.0,0.0,0.0,0.130645,-0.164124,9.797046,0.0,0.0,0.0,0.0,0.0,0.0,0.0,0.0,0.0
1659928739764305832,74474,1659928739764305832,imu,-0.001374,-0.009842,0.708547,0.705592,0.0,0.0,0.0,0.0,0.0,0.0,0.0,0.0,0.0,-0.000137374865424,0.000503126063472,0.00134128553016,0.0,0.0,0.0,0.0,0.0,0.0,0.0,0.0,0.0,0.135649,-0.135563,9.8044,0.0,0.0,0.0,0.0,0.0,0.0,0.0,0.0,0.0
1659928739769254758,74475,1659928739769254758,imu,-0.001367,-0.009843,0.708546,0.705594,0.0,0.0,0.0,0.0,0.0,0.0,0.0,0.0,0.0,0.000753982236862,-0.00260088965132,0.000396922778489,0.0,0.0,0.0,0.0,0.0,0.0,0.0,0.0,0.0,0.116449,-0.152155,9.804385,0.0,0.0,0.0,0.0,0.0,0.0,0.0,0.0,0.0
1659928739774361596,74476,1659928739774361596,imu,-0.00137,-0.009846,0.708545,0.705595,0.0,0.0,0.0,0.0,0.0,0.0,0.0,0.0,0.0,-0.00256013621329,0.00302189797349,-0.00105939740267,0.0,0.0,0.0,0.0,0.0,0.0,0.0,0.0,0.0,0.145076,-0.157192,9.81369,0.0,0.0,0.0,0.0,0.0,0.0,0.0,0.0,0.0
1659928739779325328,74477,1659928739779325328,imu,-0.001377,-0.009847,0.708546,0.705594,0.0,0.0,0.0,0.0,0.0,0.0,0.0,0.0,0.0,-0.00135153061287,0.00113915894948,0.000441114515149,0.0,0.0,0.0,0.0,0.0,0.0,0.0,0.0,0.0,0.109371,-0.15227,9.823492,0.0,0.0,0.0,0.0,0.0,0.0,0.0,0.0,0.0
1659928739784270343,74478,1659928739784270343,imu,-0.001375,-0.009847,0.708546,0.705593,0.0,0.0,0.0,0.0,0.0,0.0,0.0,0.0,0.0,0.00106533152212,-0.000730472651837,-0.000810722890844,0.0,0.0,0.0,0.0,0.0,0.0,0.0,0.0,0.0,0.147402,-0.157087,9.799379,0.0,0.0,0.0,0.0,0.0,0.0,0.0,0.0,0.0
1659928739789217732,74479,1659928739789217732,imu,-0.001372,-0.009847,0.708546,0.705594,0.0,0.0,0.0,0.0,0.0,0.0,0.0,0.0,0.0,-0.00165931942646,-0.000110234995556,0.00165336785371,0.0,0.0,0.0,0.0,0.0,0.0,0.0,0.0,0.0,0.130616,-0.164064,9.789898,0.0,0.0,0.0,0.0,0.0,0.0,0.0,0.0,0.0
1659928739794334628,74480,1659928739794334628,imu,-0.001371,-0.00985,0.708548,0.705591,0.0,0.0,0.0,0.0,0.0,0.0,0.0,0.0,0.0,0.00258053911224,-0.00199185700884,0.00038723620114,0.0,0.0,0.0,0.0,0.0,0.0,0.0,0.0,0.0,0.130596,-0.144643,9.751934,0.0,0.0,0.0,0.0,0.0,0.0,0.0,0.0,0.0
1659928739799274824,74481,1659928739799274824,imu,-0.001366,-0.009849,0.708548,0.705592,0.0,0.0,0.0,0.0,0.0,0.0,0.0,0.0,0.0,-0.000749165128126,0.00146675725008,-0.00230418367848,0.0,0.0,0.0,0.0,0.0,0.0,0.0,0.0,0.0,0.128372,-0.149803,9.799562,0.0,0.0,0.0,0.0,0.0,0.0,0.0,0.0,0.0
1659928739804247496,74482,1659928739804247496,imu,-0.001367,-0.009852,0.708546,0.705594,0.0,0.0,0.0,0.0,0.0,0.0,0.0,0.0,0.0,-0.00106761790344,-0.00164567095171,-0.00110571844102,0.0,0.0,0.0,0.0,0.0,0.0,0.0,0.0,0.0,0.135545,-0.157152,9.816135,0.0,0.0,0.0,0.0,0.0,0.0,0.0,0.0,0.0
1659928739809182663,74483,1659928739809182663,imu,-0.001368,-0.009854,0.708544,0.705596,0.0,0.0,0.0,0.0,0.0,0.0,0.0,0.0,0.0,0.00105784405963,-0.00133976709371,-0.00233912517011,0.0,0.0,0.0,0.0,0.0,0.0,0.0,0.0,0.0,0.130773,-0.13774,9.782968,0.0,0.0,0.0,0.0,0.0,0.0,0.0,0.0,0.0
1659928739814316809,74484,1659928739814316809,imu,-0.001364,-0.00986,0.708544,0.705596,0.0,0.0,0.0,0.0,0.0,0.0,0.0,0.0,0.0,-0.00288749016779,-0.00164307041112,0.000127601021613,0.0,0.0,0.0,0.0,0.0,0.0,0.0,0.0,0.0,0.116386,-0.166561,9.813796,0.0,0.0,0.0,0.0,0.0,0.0,0.0,0.0,0.0
1659928739819258821,74485,1659928739819258821,imu,-0.001363,-0.009862,0.708545,0.705594,0.0,0.0,0.0,0.0,0.0,0.0,0.0,0.0,0.0,0.000469685555004,0.000816674463593,0.000424533887255,0.0,0.0,0.0,0.0,0.0,0.0,0.0,0.0,0.0,0.142775,-0.145239,9.813805,0.0,0.0,0.0,0.0,0.0,0.0,0.0,0.0,0.0
1659928739824239315,74486,1659928739824239315,imu,-0.001362,-0.009864,0.708548,0.705592,0.0,0.0,0.0,0.0,0.0,0.0,0.0,0.0,0.0,-0.00106327203361,-0.00102700409175,-0.0007963588311,0.0,0.0,0.0,0.0,0.0,0.0,0.0,0.0,0.0,0.135511,-0.161927,9.816095,0.0,0.0,0.0,0.0,0.0,0.0,0.0,0.0,0.0
1659928739829324293,74487,1659928739829324293,imu,-0.001361,-0.009869,0.708549,0.70559,0.0,0.0,0.0,0.0,0.0,0.0,0.0,0.0,0.0,-0.00135842466341,0.000212319303505,-0.000175283416778,0.0,0.0,0.0,0.0,0.0,0.0,0.0,0.0,0.0,0.149834,-0.154775,9.806532,0.0,0.0,0.0,0.0,0.0,0.0,0.0,0.0,0.0
1659928739834279365,74488,1659928739834279365,imu,-0.001359,-0.009873,0.708553,0.705587,0.0,0.0,0.0,0.0,0.0,0.0,0.0,0.0,0.0,0.00258092308468,-0.00262459122256,0.00190645804854,0.0,0.0,0.0,0.0,0.0,0.0,0.0,0.0,0.0,0.14497,-0.149709,9.775628,0.0,0.0,0.0,0.0,0.0,0.0,0.0,0.0,0.0
1659928739839239536,74489,1659928739839239536,imu,-0.001352,-0.009874,0.708556,0.705583,0.0,0.0,0.0,0.0,0.0,0.0,0.0,0.0,0.0,-0.000753528451256,-0.000415004389539,0.000120113559122,0.0,0.0,0.0,0.0,0.0,0.0,0.0,0.0,0.0,0.14746,-0.137826,9.780477,0.0,0.0,0.0,0.0,0.0,0.0,0.0,0.0,0.0
1659928739844358806,74490,1659928739844358806,imu,-0.001352,-0.009876,0.708557,0.705582,0.0,0.0,0.0,0.0,0.0,0.0,0.0,0.0,0.0,-0.00133887697579,0.00362791119637,-0.000150028502501,0.0,0.0,0.0,0.0,0.0,0.0,0.0,0.0,0.0,0.14746,-0.147517,9.797075,0.0,0.0,0.0,0.0,0.0,0.0,0.0,0.0,0.0
1659928739849295370,74491,1659928739849295370,imu,-0.001357,-0.009872,0.708556,0.705583,0.0,0.0,0.0,0.0,0.0,0.0,0.0,0.0,0.0,-0.000432108616209,0.00363597461751,-0.00198574835646,0.0,0.0,0.0,0.0,0.0,0.0,0.0,0.0,0.0,0.152328,-0.147747,9.820871,0.0,0.0,0.0,0.0,0.0,0.0,0.0,0.0,0.0
1659928739854253445,74492,1659928739854253445,imu,-0.001361,-0.009868,0.708556,0.705584,0.0,0.0,0.0,0.0,0.0,0.0,0.0,0.0,0.0,-0.00195920189853,0.00114315575347,0.000445879264007,0.0,0.0,0.0,0.0,0.0,0.0,0.0,0.0,0.0,0.128498,-0.130682,9.797338,0.0,0.0,0.0,0.0,0.0,0.0,0.0,0.0,0.0
1659928739859183932,74493,1659928739859183932,imu,-0.001364,-0.009869,0.708556,0.705584,0.0,0.0,0.0,0.0,0.0,0.0,0.0,0.0,0.0,-0.00104196156344,0.00269906442175,-0.000768817535504,0.0,0.0,0.0,0.0,0.0,0.0,0.0,0.0,0.0,0.140191,-0.16904,9.806475,0.0,0.0,0.0,0.0,0.0,0.0,0.0,0.0,0.0
1659928739864301876,74494,1659928739864301876,imu,-0.001366,-0.009862,0.708557,0.705582,0.0,0.0,0.0,0.0,0.0,0.0,0.0,0.0,0.0,0.000471081818406,0.00175990275125,-0.00109236667224,0.0,0.0,0.0,0.0,0.0,0.0,0.0,0.0,0.0,0.104717,-0.133099,9.818917,0.0,0.0,0.0,0.0,0.0,0.0,0.0,0.0,0.0
1659928739869270357,74495,1659928739869270357,imu,-0.001371,-0.009861,0.708555,0.705584,0.0,0.0,0.0,0.0,0.0,0.0,0.0,0.0,0.0,-0.000421444654479,0.00549900887426,-0.00197197770866,0.0,0.0,0.0,0.0,0.0,0.0,0.0,0.0,0.0,0.142523,-0.17379,9.801655,0.0,0.0,0.0,0.0,0.0,0.0,0.0,0.0,0.0
1659928739874226617,74496,1659928739874226617,imu,-0.001375,-0.009853,0.708557,0.705582,0.0,0.0,0.0,0.0,0.0,0.0,0.0,0.0,0.0,-0.000131842171696,0.00174984965476,0.000740944627349,0.0,0.0,0.0,0.0,0.0,0.0,0.0,0.0,0.0,0.11169,-0.144882,9.794945,0.0,0.0,0.0,0.0,0.0,0.0,0.0,0.0,0.0
1659928739879339810,74497,1659928739879339810,imu,-0.001378,-0.00985,0.708558,0.705582,0.0,0.0,0.0,0.0,0.0,0.0,0.0,0.0,0.0,0.000783024515615,0.00331279199992,-0.00138802544753,0.0,0.0,0.0,0.0,0.0,0.0,0.0,0.0,0.0,0.116364,-0.164093,9.804286,0.0,0.0,0.0,0.0,0.0,0.0,0.0,0.0,0.0
1659928739884273441,74498,1659928739884273441,imu,-0.001381,-0.009845,0.708557,0.705583,0.0,0.0,0.0,0.0,0.0,0.0,0.0,0.0,0.0,-0.000454623363559,-0.000718150627318,-0.00110358913933,0.0,0.0,0.0,0.0,0.0,0.0,0.0,0.0,0.0,0.097321,-0.154362,9.79734,0.0,0.0,0.0,0.0,0.0,0.0,0.0,0.0,0.0
1659928739889218037,74499,1659928739889218037,imu,-0.001381,-0.009846,0.708556,0.705583,0.0,0.0,0.0,0.0,0.0,0.0,0.0,0.0,0.0,0.000171583318764,0.00238057673984,-0.00078063341454,0.0,0.0,0.0,0.0,0.0,0.0,0.0,0.0,0.0,0.123585,-0.152161,9.799573,0.0,0.0,0.0,0.0,0.0,0.0,0.0,0.0,0.0
1659928739894171991,74500,1659928739894171991,imu,-0.001383,-0.009841,0.708554,0.705585,0.0,0.0,0.0,0.0,0.0,0.0,0.0,0.0,0.0,0.000762481990319,-0.00041563270807,-0.00111081480243,0.0,0.0,0.0,0.0,0.0,0.0,0.0,0.0,0.0,0.090186,-0.164047,9.818752,0.0,0.0,0.0,0.0,0.0,0.0,0.0,0.0,0.0
1659928739899293636,74501,1659928739899293636,imu,-0.001385,-0.009839,0.708555,0.705585,0.0,0.0,0.0,0.0,0.0,0.0,0.0,0.0,0.0,-0.000440608369666,0.00145070022097,-0.000477993322244,0.0,0.0,0.0,0.0,0.0,0.0,0.0,0.0,0.0,0.106951,-0.137649,9.790271,0.0,0.0,0.0,0.0,0.0,0.0,0.0,0.0,0.0
1659928739904250244,74502,1659928739904250244,imu,-0.001383,-0.009836,0.708555,0.705585,0.0,0.0,0.0,0.0,0.0,0.0,0.0,0.0,0.0,0.00318999063375,-0.0016853422856,0.000384757833602,0.0,0.0,0.0,0.0,0.0,0.0,0.0,0.0,0.0,0.101861,-0.17572,9.778071,0.0,0.0,0.0,0.0,0.0,0.0,0.0,0.0,0.0
1659928739909219215,74503,1659928739909219215,imu,-0.001376,-0.00984,0.708556,0.705583,0.0,0.0,0.0,0.0,0.0,0.0,0.0,0.0,0.0,-0.00107946868907,-0.00413676193978,-0.00020978857609,0.0,0.0,0.0,0.0,0.0,0.0,0.0,0.0,0.0,0.099932,-0.128193,9.807074,0.0,0.0,0.0,0.0,0.0,0.0,0.0,0.0,0.0
1659928739914330104,74504,1659928739914330104,imu,-0.001375,-0.009846,0.708557,0.705583,0.0,0.0,0.0,0.0,0.0,0.0,0.0,0.0,0.0,-0.000760439955094,-0.00134184403552,-0.000496266919512,0.0,0.0,0.0,0.0,0.0,0.0,0.0,0.0,0.0,0.102053,-0.164002,9.804379,0.0,0.0,0.0,0.0,0.0,0.0,0.0,0.0,0.0
1659928739919256751,74505,1659928739919256751,imu,-0.001367,-0.009853,0.708559,0.705581,0.0,0.0,0.0,0.0,0.0,0.0,0.0,0.0,0.0,0.00196042362901,-0.00416142344212,0.000375926467587,0.0,0.0,0.0,0.0,0.0,0.0,0.0,0.0,0.0,0.13301,-0.154409,9.775665,0.0,0.0,0.0,0.0,0.0,0.0,0.0,0.0,0.0
1659928739924219505,74506,1659928739924219505,imu,-0.001357,-0.009856,0.708558,0.705582,0.0,0.0,0.0,0.0,0.0,0.0,0.0,0.0,0.0,0.00225856077184,-0.0044622134854,-0.00115254562485,0.0,0.0,0.0,0.0,0.0,0.0,0.0,0.0,0.0,0.12111,-0.17861,9.823197,0.0,0.0,0.0,0.0,0.0,0.0,0.0,0.0,0.0
1659928739929342547,74507,1659928739929342547,imu,-0.001345,-0.009861,0.708557,0.705583,0.0,0.0,0.0,0.0,0.0,0.0,0.0,0.0,0.0,0.00347055231101,-0.00477602368491,-0.00177388283856,0.0,0.0,0.0,0.0,0.0,0.0,0.0,0.0,0.0,0.140382,-0.137941,9.799583,0.0,0.0,0.0,0.0,0.0,0.0,0.0,0.0,0.0
1659928739934334216,74508,1659928739934334216,imu,-0.001333,-0.009866,0.708556,0.705584,0.0,0.0,0.0,0.0,0.0,0.0,0.0,0.0,0.0,-0.00168694798852,-0.00381757612618,-0.000812258780586,0.0,0.0,0.0,0.0,0.0,0.0,0.0,0.0,0.0,0.14245,-0.178486,9.792085,0.0,0.0,0.0,0.0,0.0,0.0,0.0,0.0,0.0
1659928739940054475,74509,1659928739940054475,imu,-0.001325,-0.009874,0.708557,0.705582,0.0,0.0,0.0,0.0,0.0,0.0,0.0,0.0,0.0,0.00195885283268,-0.00415672850643,-0.000233577413794,0.0,0.0,0.0,0.0,0.0,0.0,0.0,0.0,0.0,0.1404,-0.145244,9.816203,0.0,0.0,0.0,0.0,0.0,0.0,0.0,0.0,0.0
1659928739944181991,74510,1659928739944181991,imu,-0.001315,-0.009877,0.708557,0.705582,0.0,0.0,0.0,0.0,0.0,0.0,0.0,0.0,0.0,0.00256395848435,-0.00446888064315,-0.000545397937956,0.0,0.0,0.0,0.0,0.0,0.0,0.0,0.0,0.0,0.152089,-0.152102,9.770796,0.0,0.0,0.0,0.0,0.0,0.0,0.0,0.0,0.0
1659928739949298118,74511,1659928739949298118,imu,-0.001305,-0.009884,0.708558,0.705581,0.0,0.0,0.0,0.0,0.0,0.0,0.0,0.0,0.0,-0.000165195413701,-0.00351938662348,-0.000517088697488,0.0,0.0,0.0,0.0,0.0,0.0,0.0,0.0,0.0,0.164137,-0.147583,9.792203,0.0,0.0,0.0,0.0,0.0,0.0,0.0,0.0,0.0
1659928739954340213,74512,1659928739954340213,imu,-0.001294,-0.009893,0.708556,0.705583,0.0,0.0,0.0,0.0,0.0,0.0,0.0,0.0,0.0,0.000435756354345,-0.00413503406382,-0.00174550378492,0.0,0.0,0.0,0.0,0.0,0.0,0.0,0.0,0.0,0.176172,-0.140616,9.806481,0.0,0.0,0.0,0.0,0.0,0.0,0.0,0.0,0.0
1659928739959193176,74513,1659928739959193176,imu,-0.001286,-0.009895,0.708559,0.70558,0.0,0.0,0.0,0.0,0.0,0.0,0.0,0.0,0.0,0.00258586236646,-0.00106033988046,0.000394112798393,0.0,0.0,0.0,0.0,0.0,0.0,0.0,0.0,0.0,0.164191,-0.152538,9.813606,0.0,0.0,0.0,0.0,0.0,0.0,0.0,0.0,0.0
1659928739964345971,74514,1659928739964345971,imu,-0.001278,-0.009896,0.708556,0.705583,0.0,0.0,0.0,0.0,0.0,0.0,0.0,0.0,0.0,-0.000447310433994,0.000839067037896,-0.00170164366082,0.0,0.0,0.0,0.0,0.0,0.0,0.0,0.0,0.0,0.168875,-0.145125,9.780278,0.0,0.0,0.0,0.0,0.0,0.0,0.0,0.0,0.0
1659928739969298039,74515,1659928739969298039,imu,-0.001279,-0.009897,0.708556,0.705583,0.0,0.0,0.0,0.0,0.0,0.0,0.0,0.0,0.0,-0.00165024371435,0.00175747674359,0.00105761716683,0.0,0.0,0.0,0.0,0.0,0.0,0.0,0.0,0.0,0.17846,-0.150121,9.799238,0.0,0.0,0.0,0.0,0.0,0.0,0.0,0.0,0.0
1659928739974213581,74516,1659928739974213581,imu,-0.001285,-0.009894,0.708558,0.705581,0.0,0.0,0.0,0.0,0.0,0.0,0.0,0.0,0.0,0.00111128604133,0.00576440364032,0.00258984171716,0.0,0.0,0.0,0.0,0.0,0.0,0.0,0.0,0.0,0.171346,-0.152584,9.81356,0.0,0.0,0.0,0.0,0.0,0.0,0.0,0.0,0.0
1659928739979335016,74517,1659928739979335016,imu,-0.001293,-0.009886,0.708559,0.70558,0.0,0.0,0.0,0.0,0.0,0.0,0.0,0.0,0.0,-0.00284561971904,0.00581144026366,-0.000122068327884,0.0,0.0,0.0,0.0,0.0,0.0,0.0,0.0,0.0,0.149867,-0.15,9.806571,0.0,0.0,0.0,0.0,0.0,0.0,0.0,0.0,0.0
1659928739984280729,74518,1659928739984280729,imu,-0.001308,-0.009883,0.708559,0.705581,0.0,0.0,0.0,0.0,0.0,0.0,0.0,0.0,0.0,-0.00285253122287,0.00488460061768,-0.000738483713104,0.0,0.0,0.0,0.0,0.0,0.0,0.0,0.0,0.0,0.132916,-0.176017,9.789783,0.0,0.0,0.0,0.0,0.0,0.0,0.0,0.0,0.0
1659928739989287275,74519,1659928739989287275,imu,-0.001324,-0.009876,0.708555,0.705584,0.0,0.0,0.0,0.0,0.0,0.0,0.0,0.0,0.0,-0.00192581374994,0.00767552171796,-0.00102972680538,0.0,0.0,0.0,0.0,0.0,0.0,0.0,0.0,0.0,0.118661,-0.163928,9.782827,0.0,0.0,0.0,0.0,0.0,0.0,0.0,0.0,0.0
1659928739994190035,74520,1659928739994190035,imu,-0.001337,-0.009869,0.708558,0.705581,0.0,0.0,0.0,0.0,0.0,0.0,0.0,0.0,0.0,-0.000729617440504,0.00488233168965,-0.0022789462175,0.0,0.0,0.0,0.0,0.0,0.0,0.0,0.0,0.0,0.142546,-0.149614,9.766112,0.0,0.0,0.0,0.0,0.0,0.0,0.0,0.0,0.0
1659928739999309794,74521,1659928739999309794,imu,-0.001351,-0.009862,0.708558,0.705582,0.0,0.0,0.0,0.0,0.0,0.0,0.0,0.0,0.0,-0.00254001256701,0.00611994466224,-0.000122155594347,0.0,0.0,0.0,0.0,0.0,0.0,0.0,0.0,0.0,0.099762,-0.152069,9.806877,0.0,0.0,0.0,0.0,0.0,0.0,0.0,0.0,0.0
1659928740004899310,74522,1659928740004899310,imu,-0.001365,-0.009855,0.70856,0.705579,0.0,0.0,0.0,0.0,0.0,0.0,0.0,0.0,0.0,-0.00194005563664,0.0039283521738,0.0016855866317,0.0,0.0,0.0,0.0,0.0,0.0,0.0,0.0,0.0,0.111756,-0.152285,9.823476,0.0,0.0,0.0,0.0,0.0,0.0,0.0,0.0,0.0
1659928740010091705,74523,1659928740010091705,imu,-0.001376,-0.009846,0.708561,0.705579,0.0,0.0,0.0,0.0,0.0,0.0,0.0,0.0,0.0,-0.0010350500596,0.00362590406773,-0.000152402150284,0.0,0.0,0.0,0.0,0.0,0.0,0.0,0.0,0.0,0.068796,-0.144689,9.804754,0.0,0.0,0.0,0.0,0.0,0.0,0.0,0.0,0.0
1659928740014328034,74524,1659928740014328034,imu,-0.001386,-0.009841,0.708563,0.705576,0.0,0.0,0.0,0.0,0.0,0.0,0.0,0.0,0.0,-0.001036446323,0.00268267578007,0.00136449840921,0.0,0.0,0.0,0.0,0.0,0.0,0.0,0.0,0.0,0.083051,-0.147088,9.795111,0.0,0.0,0.0,0.0,0.0,0.0,0.0,0.0,0.0
1659928740019281430,74525,1659928740019281430,imu,-0.001392,-0.009837,0.708564,0.705576,0.0,0.0,0.0,0.0,0.0,0.0,0.0,0.0,0.0,-0.000441393767829,0.00145303896216,-0.000782762716227,0.0,0.0,0.0,0.0,0.0,0.0,0.0,0.0,0.0,0.066268,-0.166183,9.806973,0.0,0.0,0.0,0.0,0.0,0.0,0.0,0.0,0.0
1659928740024389595,74526,1659928740024389595,imu,-0.001396,-0.009834,0.708562,0.705578,0.0,0.0,0.0,0.0,0.0,0.0,0.0,0.0,0.0,0.00258471044916,-0.000425266925541,-0.0014298435364,0.0,0.0,0.0,0.0,0.0,0.0,0.0,0.0,0.0,0.087686,-0.17591,9.81152,0.0,0.0,0.0,0.0,0.0,0.0,0.0,0.0,0.0
1659928740029351721,74527,1659928740029351721,imu,-0.001392,-0.009834,0.70856,0.705579,0.0,0.0,0.0,0.0,0.0,0.0,0.0,0.0,0.0,-0.00168281155819,-0.00351409827584,0.000104300876099,0.0,0.0,0.0,0.0,0.0,0.0,0.0,0.0,0.0,0.066379,-0.132496,9.776277,0.0,0.0,0.0,0.0,0.0,0.0,0.0,0.0,0.0
1659928740034286888,74528,1659928740034286888,imu,-0.001391,-0.00984,0.70856,0.705579,0.0,0.0,0.0,0.0,0.0,0.0,0.0,0.0,0.0,-0.00016165239532,-0.00289838102232,-0.000512515934848,0.0,0.0,0.0,0.0,0.0,0.0,0.0,0.0,0.0,0.085148,-0.187693,9.79476,0.0,0.0,0.0,0.0,0.0,0.0,0.0,0.0,0.0
1659928740039229039,74529,1659928740039229039,imu,-0.001382,-0.009839,0.708559,0.705581,0.0,0.0,0.0,0.0,0.0,0.0,0.0,0.0,0.0,0.00378207612919,-0.00385351245548,-0.00085508916043,0.0,0.0,0.0,0.0,0.0,0.0,0.0,0.0,0.0,0.085502,-0.135125,9.790429,0.0,0.0,0.0,0.0,0.0,0.0,0.0,0.0,0.0
1659928740044183971,74530,1659928740044183971,imu,-0.001372,-0.009843,0.708559,0.70558,0.0,0.0,0.0,0.0,0.0,0.0,0.0,0.0,0.0,0.00165047060715,-0.00508859470065,6.66541241337e-05,0.0,0.0,0.0,0.0,0.0,0.0,0.0,0.0,0.0,0.102009,-0.168758,9.801957,0.0,0.0,0.0,0.0,0.0,0.0,0.0,0.0,0.0
1659928740049305267,74531,1659928740049305267,imu,-0.001355,-0.009854,0.70856,0.705579,0.0,0.0,0.0,0.0,0.0,0.0,0.0,0.0,0.0,0.00254776182889,-0.00757865594447,4.1154863762e-05,0.0,0.0,0.0,0.0,0.0,0.0,0.0,0.0,0.0,0.128472,-0.142741,9.811534,0.0,0.0,0.0,0.0,0.0,0.0,0.0,0.0,0.0
1659928740054262225,74532,1659928740054262225,imu,-0.001336,-0.009861,0.708558,0.705581,0.0,0.0,0.0,0.0,0.0,0.0,0.0,0.0,0.0,0.00317084437185,-0.00447053870594,-0.000854914627504,0.0,0.0,0.0,0.0,0.0,0.0,0.0,0.0,0.0,0.128457,-0.137865,9.799661,0.0,0.0,0.0,0.0,0.0,0.0,0.0,0.0,0.0
1659928740059218833,74533,1659928740059218833,imu,-0.001322,-0.00987,0.708556,0.705584,0.0,0.0,0.0,0.0,0.0,0.0,0.0,0.0,0.0,0.000421322481431,-0.00693428038464,-0.0011566296953,0.0,0.0,0.0,0.0,0.0,0.0,0.0,0.0,0.0,0.152272,-0.150055,9.81132,0.0,0.0,0.0,0.0,0.0,0.0,0.0,0.0,0.0
1659928740064325951,74534,1659928740064325951,imu,-0.001306,-0.009886,0.708554,0.705585,0.0,0.0,0.0,0.0,0.0,0.0,0.0,0.0,0.0,-0.000187919600562,-0.00818871833121,0.000972270566408,0.0,0.0,0.0,0.0,0.0,0.0,0.0,0.0,0.0,0.173661,-0.159722,9.808721,0.0,0.0,0.0,0.0,0.0,0.0,0.0,0.0,0.0
1659928740069299740,74535,1659928740069299740,imu,-0.00129,-0.009902,0.708554,0.705585,0.0,0.0,0.0,0.0,0.0,0.0,0.0,0.0,0.0,-0.000782343837206,-0.00475040225149,-0.00143581256245,0.0,0.0,0.0,0.0,0.0,0.0,0.0,0.0,0.0,0.195157,-0.159918,9.815728,0.0,0.0,0.0,0.0,0.0,0.0,0.0,0.0,0.0
1659928740074226736,74536,1659928740074226736,imu,-0.001275,-0.009916,0.708556,0.705583,0.0,0.0,0.0,0.0,0.0,0.0,0.0,0.0,0.0,0.00286028048475,-0.00634329444662,0.000657482982519,0.0,0.0,0.0,0.0,0.0,0.0,0.0,0.0,0.0,0.185773,-0.133534,9.808861,0.0,0.0,0.0,0.0,0.0,0.0,0.0,0.0,0.0
1659928740079195776,74537,1659928740079195776,imu,-0.001261,-0.009923,0.708552,0.705586,0.0,0.0,0.0,0.0,0.0,0.0,0.0,0.0,0.0,-0.000472181375835,-0.00350802453005,-0.00173377517235,0.0,0.0,0.0,0.0,0.0,0.0,0.0,0.0,0.0,0.195009,-0.176571,9.808442,0.0,0.0,0.0,0.0,0.0,0.0,0.0,0.0,0.0
1659928740084290881,74538,1659928740084290881,imu,-0.001256,-0.00993,0.708551,0.705588,0.0,0.0,0.0,0.0,0.0,0.0,0.0,0.0,0.0,-0.00167272355511,-0.00133351881499,-0.000793897916855,0.0,0.0,0.0,0.0,0.0,0.0,0.0,0.0,0.0,0.178688,-0.116675,9.797132,0.0,0.0,0.0,0.0,0.0,0.0,0.0,0.0,0.0
1659928740089240925,74539,1659928740089240925,imu,-0.001248,-0.009939,0.708549,0.70559,0.0,0.0,0.0,0.0,0.0,0.0,0.0,0.0,0.0,0.000751032630426,-0.00227632822362,-0.00142933739092,0.0,0.0,0.0,0.0,0.0,0.0,0.0,0.0,0.0,0.228327,-0.171788,9.782057,0.0,0.0,0.0,0.0,0.0,0.0,0.0,0.0,0.0
1659928740094198511,74540,1659928740094198511,imu,-0.001242,-0.009942,0.708549,0.70559,0.0,0.0,0.0,0.0,0.0,0.0,0.0,0.0,0.0,0.000473821985331,0.00112015231393,0.00134112845052,0.0,0.0,0.0,0.0,0.0,0.0,0.0,0.0,0.0,0.188175,-0.131161,9.808865,0.0,0.0,0.0,0.0,0.0,0.0,0.0,0.0,0.0
1659928740099330492,74541,1659928740099330492,imu,-0.001244,-0.009942,0.70855,0.705589,0.0,0.0,0.0,0.0,0.0,0.0,0.0,0.0,0.0,-0.00374786767586,0.00673723271209,0.00141574127605,0.0,0.0,0.0,0.0,0.0,0.0,0.0,0.0,0.0,0.202316,-0.145438,9.791975,0.0,0.0,0.0,0.0,0.0,0.0,0.0,0.0,0.0
1659928740104275018,74542,1659928740104275018,imu,-0.001257,-0.009934,0.708549,0.70559,0.0,0.0,0.0,0.0,0.0,0.0,0.0,0.0,0.0,-0.00162809548614,0.00674433620214,-0.0013437464444,0.0,0.0,0.0,0.0,0.0,0.0,0.0,0.0,0.0,0.147545,-0.125888,9.780576,0.0,0.0,0.0,0.0,0.0,0.0,0.0,0.0,0.0
1659928740109207112,74543,1659928740109207112,imu,-0.001268,-0.009926,0.708548,0.705591,0.0,0.0,0.0,0.0,0.0,0.0,0.0,0.0,0.0,-0.00192858882345,0.00705215992232,-0.000729547627334,0.0,0.0,0.0,0.0,0.0,0.0,0.0,0.0,0.0,0.168947,-0.157384,9.818302,0.0,0.0,0.0,0.0,0.0,0.0,0.0,0.0,0.0
1659928740114169867,74544,1659928740114169867,imu,-0.001282,-0.009918,0.708546,0.705593,0.0,0.0,0.0,0.0,0.0,0.0,0.0,0.0,0.0,-0.00162928231003,0.0061162969241,-0.000434045931678,0.0,0.0,0.0,0.0,0.0,0.0,0.0,0.0,0.0,0.130849,-0.145163,9.813882,0.0,0.0,0.0,0.0,0.0,0.0,0.0,0.0,0.0
1659928740119271606,74545,1659928740119271606,imu,-0.001295,-0.009907,0.708546,0.705593,0.0,0.0,0.0,0.0,0.0,0.0,0.0,0.0,0.0,0.000823655780601,0.0088761511637,0.00200564510993,0.0,0.0,0.0,0.0,0.0,0.0,0.0,0.0,0.0,0.138024,-0.135558,9.802001,0.0,0.0,0.0,0.0,0.0,0.0,0.0,0.0,0.0
1659928740124252590,74546,1659928740124252590,imu,-0.001312,-0.009892,0.708546,0.705593,0.0,0.0,0.0,0.0,0.0,0.0,0.0,0.0,0.0,-0.00161863580159,0.00797934863415,-0.00042027528388,0.0,0.0,0.0,0.0,0.0,0.0,0.0,0.0,0.0,0.094815,-0.168632,9.792472,0.0,0.0,0.0,0.0,0.0,0.0,0.0,0.0,0.0
1659928740129182588,74547,1659928740129182588,imu,-0.001325,-0.009879,0.708548,0.705592,0.0,0.0,0.0,0.0,0.0,0.0,0.0,0.0,0.0,-0.00223241573964,0.00705416705096,-0.000727173979551,0.0,0.0,0.0,0.0,0.0,0.0,0.0,0.0,0.0,0.102281,-0.140246,9.818872,0.0,0.0,0.0,0.0,0.0,0.0,0.0,0.0,0.0
1659928740134322672,74548,1659928740134322672,imu,-0.001342,-0.009868,0.708546,0.705594,0.0,0.0,0.0,0.0,0.0,0.0,0.0,0.0,0.0,0.000202004407626,0.00797439189907,-0.00134884280582,0.0,0.0,0.0,0.0,0.0,0.0,0.0,0.0,0.0,0.092335,-0.190226,9.806606,0.0,0.0,0.0,0.0,0.0,0.0,0.0,0.0,0.0
1659928740139262518,74549,1659928740139262518,imu,-0.001355,-0.00986,0.708544,0.705596,0.0,0.0,0.0,0.0,0.0,0.0,0.0,0.0,0.0,-0.00103545148533,0.00299552604849,0.00106203284984,0.0,0.0,0.0,0.0,0.0,0.0,0.0,0.0,0.0,0.087612,-0.161224,9.768752,0.0,0.0,0.0,0.0,0.0,0.0,0.0,0.0,0.0
1659928740144211514,74550,1659928740144211514,imu,-0.001361,-0.009854,0.708543,0.705597,0.0,0.0,0.0,0.0,0.0,0.0,0.0,0.0,0.0,0.00169333589358,0.00267874878925,-0.000485480784735,0.0,0.0,0.0,0.0,0.0,0.0,0.0,0.0,0.0,0.082891,-0.161294,9.780696,0.0,0.0,0.0,0.0,0.0,0.0,0.0,0.0,0.0
1659928740149308714,74551,1659928740149308714,imu,-0.001366,-0.009848,0.708543,0.705597,0.0,0.0,0.0,0.0,0.0,0.0,0.0,0.0,0.0,-0.00256153247669,0.00207866968583,0.000457520610118,0.0,0.0,0.0,0.0,0.0,0.0,0.0,0.0,0.0,0.085354,-0.151778,9.783143,0.0,0.0,0.0,0.0,0.0,0.0,0.0,0.0,0.0
1659928740154296332,74552,1659928740154296332,imu,-0.001373,-0.009848,0.708543,0.705597,0.0,0.0,0.0,0.0,0.0,0.0,0.0,0.0,0.0,0.000748466996425,-0.00258450100965,-0.00173639316622,0.0,0.0,0.0,0.0,0.0,0.0,0.0,0.0,0.0,0.049587,-0.161262,9.802357,0.0,0.0,0.0,0.0,0.0,0.0,0.0,0.0,0.0
1659928740159210337,74553,1659928740159210337,imu,-0.001367,-0.009848,0.708543,0.705596,0.0,0.0,0.0,0.0,0.0,0.0,0.0,0.0,0.0,0.00256512785495,-0.00510395359807,0.00127855839684,0.0,0.0,0.0,0.0,0.0,0.0,0.0,0.0,0.0,0.075855,-0.163916,9.814079,0.0,0.0,0.0,0.0,0.0,0.0,0.0,0.0,0.0
1659928740164473272,74554,1659928740164473272,imu,-0.001359,-0.00985,0.708544,0.705595,0.0,0.0,0.0,0.0,0.0,0.0,0.0,0.0,0.0,0.00136400971702,-0.00261192013219,0.00130644875829,0.0,0.0,0.0,0.0,0.0,0.0,0.0,0.0,0.0,0.080557,-0.163806,9.79737,0.0,0.0,0.0,0.0,0.0,0.0,0.0,0.0,0.0
1659928740169286146,74555,1659928740169286146,imu,-0.001347,-0.009848,0.708544,0.705596,0.0,0.0,0.0,0.0,0.0,0.0,0.0,0.0,0.0,0.00438990449449,-0.00480543248281,0.00126658543817,0.0,0.0,0.0,0.0,0.0,0.0,0.0,0.0,0.0,0.075719,-0.173326,9.797321,0.0,0.0,0.0,0.0,0.0,0.0,0.0,0.0,0.0
1659928740174240799,74556,1659928740174240799,imu,-0.001333,-0.009856,0.708545,0.705595,0.0,0.0,0.0,0.0,0.0,0.0,0.0,0.0,0.0,-0.00048801151215,-0.0072505165918,0.000372016930063,0.0,0.0,0.0,0.0,0.0,0.0,0.0,0.0,0.0,0.109435,-0.147555,9.83068,0.0,0.0,0.0,0.0,0.0,0.0,0.0,0.0,0.0
1659928740179180785,74557,1659928740179180785,imu,-0.001322,-0.009869,0.708545,0.705594,0.0,0.0,0.0,0.0,0.0,0.0,0.0,0.0,0.0,-0.000485236438639,-0.00662715479616,7.18377520121e-05,0.0,0.0,0.0,0.0,0.0,0.0,0.0,0.0,0.0,0.12601,-0.171637,9.842287,0.0,0.0,0.0,0.0,0.0,0.0,0.0,0.0,0.0
1659928740184298868,74558,1659928740184298868,imu,-0.001301,-0.00988,0.708545,0.705594,0.0,0.0,0.0,0.0,0.0,0.0,0.0,0.0,0.0,0.00344369169382,-0.00974881578969,-0.00120108323134,0.0,0.0,0.0,0.0,0.0,0.0,0.0,0.0,0.0,0.140302,-0.145044,9.792377,0.0,0.0,0.0,0.0,0.0,0.0,0.0,0.0,0.0
1659928740189271680,74559,1659928740189271680,imu,-0.001277,-0.009894,0.708546,0.705593,0.0,0.0,0.0,0.0,0.0,0.0,0.0,0.0,0.0,0.00192270706387,-0.0113124562666,0.00154219038035,0.0,0.0,0.0,0.0,0.0,0.0,0.0,0.0,0.0,0.125885,-0.164114,9.799459,0.0,0.0,0.0,0.0,0.0,0.0,0.0,0.0,0.0
1659928740194207405,74560,1659928740194207405,imu,-0.001257,-0.009908,0.708543,0.705596,0.0,0.0,0.0,0.0,0.0,0.0,0.0,0.0,0.0,0.000421147948506,-0.00598635716129,-0.00328306904276,0.0,0.0,0.0,0.0,0.0,0.0,0.0,0.0,0.0,0.154652,-0.135524,9.785215,0.0,0.0,0.0,0.0,0.0,0.0,0.0,0.0,0.0
1659928740199343996,74561,1659928740199343996,imu,-0.001243,-0.009918,0.708538,0.705601,0.0,0.0,0.0,0.0,0.0,0.0,0.0,0.0,0.0,-0.000166975649538,-0.0038298981507,-0.000519392532101,0.0,0.0,0.0,0.0,0.0,0.0,0.0,0.0,0.0,0.16891,-0.150041,9.796916,0.0,0.0,0.0,0.0,0.0,0.0,0.0,0.0,0.0
1659928740204265963,74562,1659928740204265963,imu,-0.001234,-0.009925,0.708537,0.705602,0.0,0.0,0.0,0.0,0.0,0.0,0.0,0.0,0.0,0.00195831178062,-0.00257608852265,-0.00387925606195,0.0,0.0,0.0,0.0,0.0,0.0,0.0,0.0,0.0,0.176303,-0.11666,9.797147,0.0,0.0,0.0,0.0,0.0,0.0,0.0,0.0,0.0
1659928740209226623,74563,1659928740209226623,imu,-0.001224,-0.009928,0.708533,0.705606,0.0,0.0,0.0,0.0,0.0,0.0,0.0,0.0,0.0,-0.00168338751684,-0.00319655307174,-0.000807668564653,0.0,0.0,0.0,0.0,0.0,0.0,0.0,0.0,0.0,0.171238,-0.142673,9.770751,0.0,0.0,0.0,0.0,0.0,0.0,0.0,0.0,0.0
1659928740214339607,74564,1659928740214339607,imu,-0.001222,-0.009934,0.708532,0.705606,0.0,0.0,0.0,0.0,0.0,0.0,0.0,0.0,0.0,-0.00135509108454,0.00051813589504,0.000436524299216,0.0,0.0,0.0,0.0,0.0,0.0,0.0,0.0,0.0,0.190478,-0.135851,9.796896,0.0,0.0,0.0,0.0,0.0,0.0,0.0,0.0,0.0
1659928740219294819,74565,1659928740219294819,imu,-0.001222,-0.009935,0.70853,0.705608,0.0,0.0,0.0,0.0,0.0,0.0,0.0,0.0,0.0,-0.00166244356582,0.0011622322022,-0.00229934911645,0.0,0.0,0.0,0.0,0.0,0.0,0.0,0.0,0.0,0.161898,-0.138177,9.811357,0.0,0.0,0.0,0.0,0.0,0.0,0.0,0.0,0.0
1659928740224274056,74566,1659928740224274056,imu,-0.00122,-0.009937,0.70853,0.705609,0.0,0.0,0.0,0.0,0.0,0.0,0.0,0.0,0.0,0.000468516184405,0.00145174741852,-0.00139942244754,0.0,0.0,0.0,0.0,0.0,0.0,0.0,0.0,0.0,0.20248,-0.14335,9.827734,0.0,0.0,0.0,0.0,0.0,0.0,0.0,0.0,0.0
1659928740229206290,74567,1659928740229206290,imu,-0.001223,-0.009925,0.70853,0.705609,0.0,0.0,0.0,0.0,0.0,0.0,0.0,0.0,0.0,0.00293747639757,0.00700615304323,0.00106093329241,0.0,0.0,0.0,0.0,0.0,0.0,0.0,0.0,0.0,0.149909,-0.142817,9.804248,0.0,0.0,0.0,0.0,0.0,0.0,0.0,0.0,0.0
1659928740234343928,74568,1659928740234343928,imu,-0.001232,-0.009918,0.708532,0.705607,0.0,0.0,0.0,0.0,0.0,0.0,0.0,0.0,0.0,-0.00224129946553,0.00550162686814,-0.000738640792737,0.0,0.0,0.0,0.0,0.0,0.0,0.0,0.0,0.0,0.176099,-0.13562,9.780311,0.0,0.0,0.0,0.0,0.0,0.0,0.0,0.0,0.0
1659928740239261425,74569,1659928740239261425,imu,-0.001241,-0.009908,0.70853,0.705609,0.0,0.0,0.0,0.0,0.0,0.0,0.0,0.0,0.0,0.00140568817956,0.00579051376593,-0.00106967739196,0.0,0.0,0.0,0.0,0.0,0.0,0.0,0.0,0.0,0.152279,-0.137957,9.792359,0.0,0.0,0.0,0.0,0.0,0.0,0.0,0.0,0.0
1659928740244220408,74570,1659928740244220408,imu,-0.001245,-0.0099,0.708528,0.705611,0.0,0.0,0.0,0.0,0.0,0.0,0.0,0.0,0.0,-0.00073693037007,0.00332511402444,-0.00168089169601,0.0,0.0,0.0,0.0,0.0,0.0,0.0,0.0,0.0,0.14251,-0.161652,9.777926,0.0,0.0,0.0,0.0,0.0,0.0,0.0,0.0,0.0
1659928740249328713,74571,1659928740249328713,imu,-0.001255,-0.009895,0.708525,0.705615,0.0,0.0,0.0,0.0,0.0,0.0,0.0,0.0,0.0,-0.00345032394498,0.00675398787291,-0.00102471771043,0.0,0.0,0.0,0.0,0.0,0.0,0.0,0.0,0.0,0.094993,-0.135085,9.778454,0.0,0.0,0.0,0.0,0.0,0.0,0.0,0.0,0.0
1659928740254676436,74572,1659928740254676436,imu,-0.001268,-0.009891,0.708526,0.705613,0.0,0.0,0.0,0.0,0.0,0.0,0.0,0.0,0.0,-0.00102834799528,0.00423755470409,0.0010712132817,0.0,0.0,0.0,0.0,0.0,0.0,0.0,0.0,0.0,0.120947,-0.190388,9.804037,0.0,0.0,0.0,0.0,0.0,0.0,0.0,0.0,0.0
1659928740259355074,74573,1659928740259355074,imu,-0.001278,-0.009885,0.708528,0.705611,0.0,0.0,0.0,0.0,0.0,0.0,0.0,0.0,0.0,-0.00345939965709,0.00488625868047,-0.000428949570263,0.0,0.0,0.0,0.0,0.0,0.0,0.0,0.0,0.0,0.109385,-0.128073,9.785568,0.0,0.0,0.0,0.0,0.0,0.0,0.0,0.0,0.0
1659928740264176748,74574,1659928740264176748,imu,-0.001285,-0.009884,0.708528,0.705611,0.0,0.0,0.0,0.0,0.0,0.0,0.0,0.0,0.0,-0.000738536072981,0.00206667927387,0.000443243816836,0.0,0.0,0.0,0.0,0.0,0.0,0.0,0.0,0.0,0.121112,-0.171347,9.811343,0.0,0.0,0.0,0.0,0.0,0.0,0.0,0.0,0.0
1659928740269292247,74575,1659928740269292247,imu,-0.001288,-0.009883,0.708531,0.705608,0.0,0.0,0.0,0.0,0.0,0.0,0.0,0.0,0.0,-0.000140533911371,0.000512498481556,0.00012224286081,0.0,0.0,0.0,0.0,0.0,0.0,0.0,0.0,0.0,0.095,-0.169012,9.837742,0.0,0.0,0.0,0.0,0.0,0.0,0.0,0.0,0.0
1659928740274250462,74576,1659928740274250462,imu,-0.001292,-0.00988,0.708532,0.705607,0.0,0.0,0.0,0.0,0.0,0.0,0.0,0.0,0.0,-0.00196056325535,0.00146302224548,-0.000770859570728,0.0,0.0,0.0,0.0,0.0,0.0,0.0,0.0,0.0,0.092498,-0.168757,9.809167,0.0,0.0,0.0,0.0,0.0,0.0,0.0,0.0,0.0
1659928740279207000,74577,1659928740279207000,imu,-0.001296,-0.009878,0.708531,0.705609,0.0,0.0,0.0,0.0,0.0,0.0,0.0,0.0,0.0,0.00350469095117,0.000490873852123,-0.000211062666444,0.0,0.0,0.0,0.0,0.0,0.0,0.0,0.0,0.0,0.090027,-0.17099,9.792484,0.0,0.0,0.0,0.0,0.0,0.0,0.0,0.0,0.0
1659928740284360144,74578,1659928740284360144,imu,-0.001291,-0.009876,0.708529,0.70561,0.0,0.0,0.0,0.0,0.0,0.0,0.0,0.0,0.0,0.000137252692377,-0.00320150980681,-0.00173623608659,0.0,0.0,0.0,0.0,0.0,0.0,0.0,0.0,0.0,0.097234,-0.173563,9.809096,0.0,0.0,0.0,0.0,0.0,0.0,0.0,0.0,0.0
1659928740289264091,74579,1659928740289264091,imu,-0.001285,-0.009882,0.708526,0.705613,0.0,0.0,0.0,0.0,0.0,0.0,0.0,0.0,0.0,0.000736406771294,-0.00539078100734,-0.000233245801237,0.0,0.0,0.0,0.0,0.0,0.0,0.0,0.0,0.0,0.073373,-0.173391,9.806869,0.0,0.0,0.0,0.0,0.0,0.0,0.0,0.0,0.0
1659928740295249541,74580,1659928740295249541,imu,-0.001276,-0.00989,0.708528,0.705611,0.0,0.0,0.0,0.0,0.0,0.0,0.0,0.0,0.0,-0.00109290772431,-0.00662315799218,7.660250087e-05,0.0,0.0,0.0,0.0,0.0,0.0,0.0,0.0,0.0,0.10692,-0.144852,9.794976,0.0,0.0,0.0,0.0,0.0,0.0,0.0,0.0,0.0
1659928740299335081,74581,1659928740299335081,imu,-0.001264,-0.009895,0.708525,0.705614,0.0,0.0,0.0,0.0,0.0,0.0,0.0,0.0,0.0,0.00377891708325,-0.0038441400374,-0.00207413182978,0.0,0.0,0.0,0.0,0.0,0.0,0.0,0.0,0.0,0.109053,-0.183109,9.799408,0.0,0.0,0.0,0.0,0.0,0.0,0.0,0.0,0.0
1659928740304299372,74582,1659928740304299372,imu,-0.001255,-0.009893,0.708525,0.705614,0.0,0.0,0.0,0.0,0.0,0.0,0.0,0.0,0.0,0.00318485936575,-0.00230167040436,-0.000229336263712,0.0,0.0,0.0,0.0,0.0,0.0,0.0,0.0,0.0,0.102152,-0.137558,9.783154,0.0,0.0,0.0,0.0,0.0,0.0,0.0,0.0,0.0
1659928740309226647,74583,1659928740309226647,imu,-0.001248,-0.009895,0.708524,0.705615,0.0,0.0,0.0,0.0,0.0,0.0,0.0,0.0,0.0,0.000450137867382,-0.00259889997597,0.000399296426271,0.0,0.0,0.0,0.0,0.0,0.0,0.0,0.0,0.0,0.147414,-0.159535,9.806508,0.0,0.0,0.0,0.0,0.0,0.0,0.0,0.0,0.0
1659928740314178856,74584,1659928740314178856,imu,-0.00124,-0.0099,0.708524,0.705615,0.0,0.0,0.0,0.0,0.0,0.0,0.0,0.0,0.0,0.000752393987242,-0.00259621216893,-0.000212581102893,0.0,0.0,0.0,0.0,0.0,0.0,0.0,0.0,0.0,0.145075,-0.147502,9.797091,0.0,0.0,0.0,0.0,0.0,0.0,0.0,0.0,0.0
1659928740319306786,74585,1659928740319306786,imu,-0.001229,-0.009906,0.708525,0.705614,0.0,0.0,0.0,0.0,0.0,0.0,0.0,0.0,0.0,0.00135767417183,-0.00385628752899,0.00160202026711,0.0,0.0,0.0,0.0,0.0,0.0,0.0,0.0,0.0,0.142612,-0.147326,9.778046,0.0,0.0,0.0,0.0,0.0,0.0,0.0,0.0,0.0
1659928740324264792,74586,1659928740324264792,imu,-0.001223,-0.00991,0.708525,0.705615,0.0,0.0,0.0,0.0,0.0,0.0,0.0,0.0,0.0,-0.000754907261365,-9.51378975262e-05,-0.00109662527561,0.0,0.0,0.0,0.0,0.0,0.0,0.0,0.0,0.0,0.123698,-0.130592,9.790221,0.0,0.0,0.0,0.0,0.0,0.0,0.0,0.0,0.0
1659928740329211133,74587,1659928740329211133,imu,-0.001219,-0.00991,0.708524,0.705615,0.0,0.0,0.0,0.0,0.0,0.0,0.0,0.0,0.0,0.00137821669713,-0.000127862821001,0.00132480962202,0.0,0.0,0.0,0.0,0.0,0.0,0.0,0.0,0.0,0.162,-0.133542,9.828076,0.0,0.0,0.0,0.0,0.0,0.0,0.0,0.0,0.0
1659928740334319019,74588,1659928740334319019,imu,-0.001211,-0.009912,0.708526,0.705613,0.0,0.0,0.0,0.0,0.0,0.0,0.0,0.0,0.0,0.000446577395708,-0.00321990557713,0.000394706210339,0.0,0.0,0.0,0.0,0.0,0.0,0.0,0.0,0.0,0.152153,-0.157078,9.794583,0.0,0.0,0.0,0.0,0.0,0.0,0.0,0.0,0.0
1659928740339267386,74589,1659928740339267386,imu,-0.001205,-0.009917,0.708526,0.705613,0.0,0.0,0.0,0.0,0.0,0.0,0.0,0.0,0.0,0.00137212549804,0.00020605357149,-0.00172051067003,0.0,0.0,0.0,0.0,0.0,0.0,0.0,0.0,0.0,0.178565,-0.147914,9.820701,0.0,0.0,0.0,0.0,0.0,0.0,0.0,0.0,0.0
1659928740344220223,74590,1659928740344220223,imu,-0.0012,-0.009915,0.708527,0.705612,0.0,0.0,0.0,0.0,0.0,0.0,0.0,0.0,0.0,-0.000441428674414,0.000189926729202,0.00195091158459,0.0,0.0,0.0,0.0,0.0,0.0,0.0,0.0,0.0,0.183371,-0.126215,9.792257,0.0,0.0,0.0,0.0,0.0,0.0,0.0,0.0,0.0
1659928740349343963,74591,1659928740349343963,imu,-0.001201,-0.009916,0.708526,0.705613,0.0,0.0,0.0,0.0,0.0,0.0,0.0,0.0,0.0,-0.00105754735366,0.000534891055859,-0.00200393468726,0.0,0.0,0.0,0.0,0.0,0.0,0.0,0.0,0.0,0.154523,-0.152217,9.782695,0.0,0.0,0.0,0.0,0.0,0.0,0.0,0.0,0.0
1659928740354295334,74592,1659928740354295334,imu,-0.001202,-0.009914,0.708525,0.705615,0.0,0.0,0.0,0.0,0.0,0.0,0.0,0.0,0.0,-0.000132976635709,0.00364803484264,-0.00381670346155,0.0,0.0,0.0,0.0,0.0,0.0,0.0,0.0,0.0,0.168985,-0.138083,9.794633,0.0,0.0,0.0,0.0,0.0,0.0,0.0,0.0,0.0
1659928740359258228,74593,1659928740359258228,imu,-0.001204,-0.00991,0.708525,0.705614,0.0,0.0,0.0,0.0,0.0,0.0,0.0,0.0,0.0,0.00108507119596,0.00300029079735,-0.00139270292992,0.0,0.0,0.0,0.0,0.0,0.0,0.0,0.0,0.0,0.168958,-0.150141,9.80883,0.0,0.0,0.0,0.0,0.0,0.0,0.0,0.0,0.0
1659928740364186271,74594,1659928740364186271,imu,-0.001209,-0.009908,0.708523,0.705616,0.0,0.0,0.0,0.0,0.0,0.0,0.0,0.0,0.0,-0.00195799762135,0.00177119503151,-0.000463803795425,0.0,0.0,0.0,0.0,0.0,0.0,0.0,0.0,0.0,0.149825,-0.137801,9.775696,0.0,0.0,0.0,0.0,0.0,0.0,0.0,0.0,0.0
1659928740369309941,74595,1659928740369309941,imu,-0.001218,-0.009906,0.708525,0.705614,0.0,0.0,0.0,0.0,0.0,0.0,0.0,0.0,0.0,-0.000423626316044,0.0045581193278,-0.000759811636563,0.0,0.0,0.0,0.0,0.0,0.0,0.0,0.0,0.0,0.147458,-0.15478,9.80893,0.0,0.0,0.0,0.0,0.0,0.0,0.0,0.0,0.0
1659928740374253629,74596,1659928740374253629,imu,-0.001224,-0.009898,0.708524,0.705615,0.0,0.0,0.0,0.0,0.0,0.0,0.0,0.0,0.0,0.000481344354408,0.00299255898876,0.000135838975683,0.0,0.0,0.0,0.0,0.0,0.0,0.0,0.0,0.0,0.121348,-0.145183,9.823474,0.0,0.0,0.0,0.0,0.0,0.0,0.0,0.0,0.0
1659928740379214987,74597,1659928740379214987,imu,-0.001228,-0.009891,0.708524,0.705615,0.0,0.0,0.0,0.0,0.0,0.0,0.0,0.0,0.0,0.000800757060815,0.0051547426793,0.00136858247966,0.0,0.0,0.0,0.0,0.0,0.0,0.0,0.0,0.0,0.142581,-0.173911,9.81595,0.0,0.0,0.0,0.0,0.0,0.0,0.0,0.0,0.0
1659928740384318543,74598,1659928740384318543,imu,-0.001233,-0.009883,0.708526,0.705613,0.0,0.0,0.0,0.0,0.0,0.0,0.0,0.0,0.0,0.0013957921627,0.00266201108173,0.00195497820174,0.0,0.0,0.0,0.0,0.0,0.0,0.0,0.0,0.0,0.13081,-0.145083,9.804352,0.0,0.0,0.0,0.0,0.0,0.0,0.0,0.0,0.0
1659928740389291075,74599,1659928740389291075,imu,-0.001235,-0.009881,0.708529,0.705611,0.0,0.0,0.0,0.0,0.0,0.0,0.0,0.0,0.0,-0.000132051611206,0.00143464319185,0.0013481795807,0.0,0.0,0.0,0.0,0.0,0.0,0.0,0.0,0.0,0.130601,-0.159189,9.778025,0.0,0.0,0.0,0.0,0.0,0.0,0.0,0.0,0.0
1659928740394224845,74600,1659928740394224845,imu,-0.001238,-0.009876,0.708531,0.705609,0.0,0.0,0.0,0.0,0.0,0.0,0.0,0.0,0.0,0.000780423975029,0.00174150698093,0.00103857562469,0.0,0.0,0.0,0.0,0.0,0.0,0.0,0.0,0.0,0.111888,-0.138019,9.830744,0.0,0.0,0.0,0.0,0.0,0.0,0.0,0.0,0.0
1659928740399173143,74601,1659928740399173143,imu,-0.00124,-0.009875,0.708527,0.705612,0.0,0.0,0.0,0.0,0.0,0.0,0.0,0.0,0.0,-0.000451446864321,0.000535571734267,-0.00261822077079,0.0,0.0,0.0,0.0,0.0,0.0,0.0,0.0,0.0,0.113935,-0.168833,9.801879,0.0,0.0,0.0,0.0,0.0,0.0,0.0,0.0,0.0
1659928740404311270,74602,1659928740404311270,imu,-0.001243,-0.009872,0.708527,0.705613,0.0,0.0,0.0,0.0,0.0,0.0,0.0,0.0,0.0,-0.000736755837144,0.00237719080109,0.000445530198157,0.0,0.0,0.0,0.0,0.0,0.0,0.0,0.0,0.0,0.10937,-0.123198,9.773694,0.0,0.0,0.0,0.0,0.0,0.0,0.0,0.0,0.0
1659928740409255936,74603,1659928740409255936,imu,-0.001248,-0.009871,0.708527,0.705612,0.0,0.0,0.0,0.0,0.0,0.0,0.0,0.0,0.0,-0.00256488350885,0.0017728530943,-0.000154287105876,0.0,0.0,0.0,0.0,0.0,0.0,0.0,0.0,0.0,0.109196,-0.1616,9.797204,0.0,0.0,0.0,0.0,0.0,0.0,0.0,0.0,0.0
1659928740414216385,74604,1659928740414216385,imu,-0.001247,-0.009872,0.708527,0.705612,0.0,0.0,0.0,0.0,0.0,0.0,0.0,0.0,0.0,0.00226665909957,-0.00290733456139,-0.00144583075235,0.0,0.0,0.0,0.0,0.0,0.0,0.0,0.0,0.0,0.104515,-0.135106,9.773626,0.0,0.0,0.0,0.0,0.0,0.0,0.0,0.0,0.0
1659928740419312398,74605,1659928740419312398,imu,-0.001239,-0.009873,0.708527,0.705613,0.0,0.0,0.0,0.0,0.0,0.0,0.0,0.0,0.0,-0.00319367327847,-0.00163402960559,-0.000784298605969,0.0,0.0,0.0,0.0,0.0,0.0,0.0,0.0,0.0,0.130706,-0.147291,9.782888,0.0,0.0,0.0,0.0,0.0,0.0,0.0,0.0,0.0
1659928740424250568,74606,1659928740424250568,imu,-0.001241,-0.009881,0.708524,0.705615,0.0,0.0,0.0,0.0,0.0,0.0,0.0,0.0,0.0,-0.00198445681281,-0.00257120160075,-0.00110545664163,0.0,0.0,0.0,0.0,0.0,0.0,0.0,0.0,0.0,0.10471,-0.145197,9.837878,0.0,0.0,0.0,0.0,0.0,0.0,0.0,0.0,0.0
1659928740429213812,74607,1659928740429213812,imu,-0.001239,-0.009888,0.708524,0.705616,0.0,0.0,0.0,0.0,0.0,0.0,0.0,0.0,0.0,-0.00259530459772,-0.00382096206493,0.00041390483211,0.0,0.0,0.0,0.0,0.0,0.0,0.0,0.0,0.0,0.106863,-0.137469,9.768827,0.0,0.0,0.0,0.0,0.0,0.0,0.0,0.0,0.0
1659928740434332174,74608,1659928740434332174,imu,-0.001238,-0.0099,0.708525,0.705615,0.0,0.0,0.0,0.0,0.0,0.0,0.0,0.0,0.0,-0.00198328744221,-0.00320627455567,0.000718499693169,0.0,0.0,0.0,0.0,0.0,0.0,0.0,0.0,0.0,0.137742,-0.16405,9.782704,0.0,0.0,0.0,0.0,0.0,0.0,0.0,0.0,0.0
1659928740439265805,74609,1659928740439265805,imu,-0.001234,-0.009907,0.708527,0.705612,0.0,0.0,0.0,0.0,0.0,0.0,0.0,0.0,0.0,-0.00257929992847,-0.00102639322651,0.000434569530454,0.0,0.0,0.0,0.0,0.0,0.0,0.0,0.0,0.0,0.135724,-0.133296,9.818716,0.0,0.0,0.0,0.0,0.0,0.0,0.0,0.0,0.0
1659928740444236731,74610,1659928740444236731,imu,-0.001234,-0.009917,0.708525,0.705614,0.0,0.0,0.0,0.0,0.0,0.0,0.0,0.0,0.0,-0.00138448242914,-0.00349969930951,-0.0020313887164,0.0,0.0,0.0,0.0,0.0,0.0,0.0,0.0,0.0,0.147266,-0.176188,9.79922,0.0,0.0,0.0,0.0,0.0,0.0,0.0,0.0,0.0
1659928740449178184,74611,1659928740449178184,imu,-0.00123,-0.009918,0.708525,0.705614,0.0,0.0,0.0,0.0,0.0,0.0,0.0,0.0,0.0,0.000157166899142,-0.000418652127676,-0.000191759324917,0.0,0.0,0.0,0.0,0.0,0.0,0.0,0.0,0.0,0.116744,-0.109158,9.802359,0.0,0.0,0.0,0.0,0.0,0.0,0.0,0.0,0.0
1659928740454299968,74612,1659928740454299968,imu,-0.001227,-0.009929,0.708525,0.705614,0.0,0.0,0.0,0.0,0.0,0.0,0.0,0.0,0.0,-0.00290483874056,-0.00411775530423,-0.00110980251147,0.0,0.0,0.0,0.0,0.0,0.0,0.0,0.0,0.0,0.142544,-0.166568,9.794565,0.0,0.0,0.0,0.0,0.0,0.0,0.0,0.0,0.0
1659928740459250081,74613,1659928740459250081,imu,-0.00122,-0.009936,0.708525,0.705614,0.0,0.0,0.0,0.0,0.0,0.0,0.0,0.0,0.0,0.00316967500125,-0.00383546575101,-0.00267890586889,0.0,0.0,0.0,0.0,0.0,0.0,0.0,0.0,0.0,0.164183,-0.135565,9.782772,0.0,0.0,0.0,0.0,0.0,0.0,0.0,0.0,0.0
1659928740464197051,74614,1659928740464197051,imu,-0.001213,-0.009938,0.708525,0.705614,0.0,0.0,0.0,0.0,0.0,0.0,0.0,0.0,0.0,0.00046376888884,0.000202685086034,-0.00049431215075,0.0,0.0,0.0,0.0,0.0,0.0,0.0,0.0,0.0,0.135324,-0.188191,9.815878,0.0,0.0,0.0,0.0,0.0,0.0,0.0,0.0,0.0
1659928740469354036,74615,1659928740469354036,imu,-0.00121,-0.009936,0.708525,0.705614,0.0,0.0,0.0,0.0,0.0,0.0,0.0,0.0,0.0,0.00288614626427,-0.00168335261026,0.000387148934677,0.0,0.0,0.0,0.0,0.0,0.0,0.0,0.0,0.0,0.102275,-0.11601,9.776183,0.0,0.0,0.0,0.0,0.0,0.0,0.0,0.0,0.0
1659928740474309597,74616,1659928740474309597,imu,-0.001203,-0.009939,0.708526,0.705613,0.0,0.0,0.0,0.0,0.0,0.0,0.0,0.0,0.0,-0.000470610579508,-0.00351271946573,-0.00112423638438,0.0,0.0,0.0,0.0,0.0,0.0,0.0,0.0,0.0,0.13759,-0.185538,9.782525,0.0,0.0,0.0,0.0,0.0,0.0,0.0,0.0,0.0
1659928740479226885,74617,1659928740479226885,imu,-0.001201,-0.009943,0.708525,0.705613,0.0,0.0,0.0,0.0,0.0,0.0,0.0,0.0,0.0,-0.00166818569906,-0.000399645492122,-0.00109177326029,0.0,0.0,0.0,0.0,0.0,0.0,0.0,0.0,0.0,0.145213,-0.130828,9.801995,0.0,0.0,0.0,0.0,0.0,0.0,0.0,0.0,0.0
1659928740484338123,74618,1659928740484338123,imu,-0.001196,-0.00994,0.708526,0.705613,0.0,0.0,0.0,0.0,0.0,0.0,0.0,0.0,0.0,0.00290251745265,0.000478464561142,0.00192701802713,0.0,0.0,0.0,0.0,0.0,0.0,0.0,0.0,0.0,0.149678,-0.164145,9.785008,0.0,0.0,0.0,0.0,0.0,0.0,0.0,0.0,0.0
1659928740489282719,74619,1659928740489282719,imu,-0.001199,-0.009941,0.708526,0.705613,0.0,0.0,0.0,0.0,0.0,0.0,0.0,0.0,0.0,-0.00196098213437,0.000832644226249,0.000443575429394,0.0,0.0,0.0,0.0,0.0,0.0,0.0,0.0,0.0,0.126092,-0.157271,9.83764,0.0,0.0,0.0,0.0,0.0,0.0,0.0,0.0,0.0
1659928740494232203,74620,1659928740494232203,imu,-0.0012,-0.00994,0.708527,0.705611,0.0,0.0,0.0,0.0,0.0,0.0,0.0,0.0,0.0,-0.000443174003666,0.00114254488823,-0.000785049097547,0.0,0.0,0.0,0.0,0.0,0.0,0.0,0.0,0.0,0.13783,-0.154539,9.787548,0.0,0.0,0.0,0.0,0.0,0.0,0.0,0.0,0.0
1659928740499231485,74621,1659928740499231485,imu,-0.001202,-0.009941,0.708529,0.70561,0.0,0.0,0.0,0.0,0.0,0.0,0.0,0.0,0.0,0.000782413650377,0.00236720751777,0.000433644505951,0.0,0.0,0.0,0.0,0.0,0.0,0.0,0.0,0.0,0.135284,-0.16873,9.773148,0.0,0.0,0.0,0.0,0.0,0.0,0.0,0.0,0.0
1659928740504313949,74622,1659928740504313949,imu,-0.001202,-0.009936,0.70853,0.705609,0.0,0.0,0.0,0.0,0.0,0.0,0.0,0.0,0.0,0.00138357485793,0.00206676654033,-0.00140197062825,0.0,0.0,0.0,0.0,0.0,0.0,0.0,0.0,0.0,0.135552,-0.154744,9.813772,0.0,0.0,0.0,0.0,0.0,0.0,0.0,0.0,0.0
1659928740509253376,74623,1659928740509253376,imu,-0.001204,-0.009935,0.708529,0.70561,0.0,0.0,0.0,0.0,0.0,0.0,0.0,0.0,0.0,-0.00258324437258,-0.00101468206723,-0.00108922507958,0.0,0.0,0.0,0.0,0.0,0.0,0.0,0.0,0.0,0.116391,-0.171416,9.823287,0.0,0.0,0.0,0.0,0.0,0.0,0.0,0.0,0.0
1659928740514210962,74624,1659928740514210962,imu,-0.001207,-0.009939,0.708529,0.705609,0.0,0.0,0.0,0.0,0.0,0.0,0.0,0.0,0.0,0.000459021593275,-0.00104635979316,0.000410780692749,0.0,0.0,0.0,0.0,0.0,0.0,0.0,0.0,0.0,0.132945,-0.156696,9.763732,0.0,0.0,0.0,0.0,0.0,0.0,0.0,0.0,0.0
1659928740519319966,74625,1659928740519319966,imu,-0.001205,-0.009941,0.70853,0.705609,0.0,0.0,0.0,0.0,0.0,0.0,0.0,0.0,0.0,-0.000139539073697,0.000825348749976,-0.000180205245268,0.0,0.0,0.0,0.0,0.0,0.0,0.0,0.0,0.0,0.135258,-0.190478,9.803946,0.0,0.0,0.0,0.0,0.0,0.0,0.0,0.0,0.0
1659928740524322321,74626,1659928740524322321,imu,-0.001205,-0.009945,0.708531,0.705608,0.0,0.0,0.0,0.0,0.0,0.0,0.0,0.0,0.0,-0.00074857171618,0.00114922949927,-0.00139219678444,0.0,0.0,0.0,0.0,0.0,0.0,0.0,0.0,0.0,0.126031,-0.154724,9.8186,0.0,0.0,0.0,0.0,0.0,0.0,0.0,0.0,0.0
1659928740529302885,74627,1659928740529302885,imu,-0.001208,-0.009945,0.70853,0.705609,0.0,0.0,0.0,0.0,0.0,0.0,0.0,0.0,0.0,-0.000445146225721,0.000516844351393,-0.000180117978806,0.0,0.0,0.0,0.0,0.0,0.0,0.0,0.0,0.0,0.135221,-0.173445,9.765961,0.0,0.0,0.0,0.0,0.0,0.0,0.0,0.0,0.0
1659928740534333875,74628,1659928740534333875,imu,-0.001209,-0.009949,0.708531,0.705608,0.0,0.0,0.0,0.0,0.0,0.0,0.0,0.0,0.0,-0.00258364579831,-0.00164506008647,0.000125209920538,0.0,0.0,0.0,0.0,0.0,0.0,0.0,0.0,0.0,0.114125,-0.154688,9.823442,0.0,0.0,0.0,0.0,0.0,0.0,0.0,0.0,0.0
1659928740539386097,74629,1659928740539386097,imu,-0.001205,-0.009952,0.708529,0.70561,0.0,0.0,0.0,0.0,0.0,0.0,0.0,0.0,0.0,0.000757769601338,-0.000401565354299,-0.00293937880645,0.0,0.0,0.0,0.0,0.0,0.0,0.0,0.0,0.0,0.152075,-0.156918,9.775521,0.0,0.0,0.0,0.0,0.0,0.0,0.0,0.0,0.0
1659928740544235289,74630,1659928740544235289,imu,-0.001203,-0.009955,0.708529,0.70561,0.0,0.0,0.0,0.0,0.0,0.0,0.0,0.0,0.0,-0.000436681378849,0.00143898906168,0.0010458012878,0.0,0.0,0.0,0.0,0.0,0.0,0.0,0.0,0.0,0.128252,-0.147135,9.766226,0.0,0.0,0.0,0.0,0.0,0.0,0.0,0.0,0.0
1659928740549196158,74631,1659928740549196158,imu,-0.001204,-0.009948,0.708533,0.705606,0.0,0.0,0.0,0.0,0.0,0.0,0.0,0.0,0.0,0.000475602221168,0.00143066384115,0.00134341483185,0.0,0.0,0.0,0.0,0.0,0.0,0.0,0.0,0.0,0.114044,-0.1521,9.799635,0.0,0.0,0.0,0.0,0.0,0.0,0.0,0.0,0.0
1659928740554379892,74632,1659928740554379892,imu,-0.001202,-0.009948,0.708535,0.705604,0.0,0.0,0.0,0.0,0.0,0.0,0.0,0.0,0.0,0.000148073733739,-0.00228638132011,0.000403973908667,0.0,0.0,0.0,0.0,0.0,0.0,0.0,0.0,0.0,0.145187,-0.142887,9.816192,0.0,0.0,0.0,0.0,0.0,0.0,0.0,0.0,0.0
1659928740559280417,74633,1659928740559280417,imu,-0.001199,-0.00995,0.708535,0.705603,0.0,0.0,0.0,0.0,0.0,0.0,0.0,0.0,0.0,-0.00165024371435,0.00175747674359,0.00105761716683,0.0,0.0,0.0,0.0,0.0,0.0,0.0,0.0,0.0,0.14288,-0.133341,9.818669,0.0,0.0,0.0,0.0,0.0,0.0,0.0,0.0,0.0
1659928740564202594,74634,1659928740564202594,imu,-0.001201,-0.009948,0.708536,0.705602,0.0,0.0,0.0,0.0,0.0,0.0,0.0,0.0,0.0,0.000766792953571,-0.00106006062778,0.00193220165501,0.0,0.0,0.0,0.0,0.0,0.0,0.0,0.0,0.0,0.116351,-0.151955,9.78056,0.0,0.0,0.0,0.0,0.0,0.0,0.0,0.0,0.0
1659928740569331013,74635,1659928740569331013,imu,-0.001198,-0.009951,0.708536,0.705603,0.0,0.0,0.0,0.0,0.0,0.0,0.0,0.0,0.0,-0.00166562006506,-9.14901593895e-05,-0.000784717484989,0.0,0.0,0.0,0.0,0.0,0.0,0.0,0.0,0.0,0.135705,-0.133256,9.813951,0.0,0.0,0.0,0.0,0.0,0.0,0.0,0.0,0.0
1659928740574366822,74636,1659928740574366822,imu,-0.0012,-0.009951,0.708537,0.705601,0.0,0.0,0.0,0.0,0.0,0.0,0.0,0.0,0.0,0.000473438012896,0.00175286907436,-0.000178075943581,0.0,0.0,0.0,0.0,0.0,0.0,0.0,0.0,0.0,0.140174,-0.171428,9.806456,0.0,0.0,0.0,0.0,0.0,0.0,0.0,0.0,0.0
1659928740579243881,74637,1659928740579243881,imu,-0.001192,-0.009944,0.708538,0.7056,0.0,0.0,0.0,0.0,0.0,0.0,0.0,0.0,0.0,0.00410644557068,-0.000127077422838,-0.0011346909066,0.0,0.0,0.0,0.0,0.0,0.0,0.0,0.0,0.0,0.140465,-0.123575,9.794938,0.0,0.0,0.0,0.0,0.0,0.0,0.0,0.0,0.0
1659928740584340802,74638,1659928740584340802,imu,-0.00119,-0.009945,0.708537,0.705601,0.0,0.0,0.0,0.0,0.0,0.0,0.0,0.0,0.0,-0.00137008346282,-0.00196354776837,0.000113394041502,0.0,0.0,0.0,0.0,0.0,0.0,0.0,0.0,0.0,0.123784,-0.138035,9.823518,0.0,0.0,0.0,0.0,0.0,0.0,0.0,0.0,0.0
1659928740589288680,74639,1659928740589288680,imu,-0.001185,-0.009952,0.708537,0.705601,0.0,0.0,0.0,0.0,0.0,0.0,0.0,0.0,0.0,0.000752393987242,-0.00259621216893,-0.000212581102893,0.0,0.0,0.0,0.0,0.0,0.0,0.0,0.0,0.0,0.154552,-0.142587,9.773243,0.0,0.0,0.0,0.0,0.0,0.0,0.0,0.0,0.0
1659928740594243193,74640,1659928740594243193,imu,-0.001183,-0.009949,0.708538,0.705601,0.0,0.0,0.0,0.0,0.0,0.0,0.0,0.0,0.0,0.00199464953564,0.0020584413198,-0.000801856618244,0.0,0.0,0.0,0.0,0.0,0.0,0.0,0.0,0.0,0.130874,-0.152524,9.832905,0.0,0.0,0.0,0.0,0.0,0.0,0.0,0.0,0.0
1659928740599179268,74641,1659928740599179268,imu,-0.00118,-0.009944,0.708537,0.705601,0.0,0.0,0.0,0.0,0.0,0.0,0.0,0.0,0.0,-0.00138066015808,-0.00287363225353,-0.00264096241095,0.0,0.0,0.0,0.0,0.0,0.0,0.0,0.0,0.0,0.116506,-0.14505,9.806848,0.0,0.0,0.0,0.0,0.0,0.0,0.0,0.0,0.0
1659928740604299516,74642,1659928740604299516,imu,-0.001174,-0.009949,0.708537,0.705602,0.0,0.0,0.0,0.0,0.0,0.0,0.0,0.0,0.0,0.001990076773,-0.000138509329438,0.00222969302601,0.0,0.0,0.0,0.0,0.0,0.0,0.0,0.0,0.0,0.154399,-0.166541,9.777831,0.0,0.0,0.0,0.0,0.0,0.0,0.0,0.0,0.0
1659928740609264715,74643,1659928740609264715,imu,-0.001176,-0.009947,0.708537,0.705601,0.0,0.0,0.0,0.0,0.0,0.0,0.0,0.0,0.0,-0.00103185610707,0.00330638664156,0.00105967665535,0.0,0.0,0.0,0.0,0.0,0.0,0.0,0.0,0.0,0.137837,-0.154597,9.78995,0.0,0.0,0.0,0.0,0.0,0.0,0.0,0.0,0.0
1659928740614207565,74644,1659928740614207565,imu,-0.001178,-0.009945,0.708541,0.705598,0.0,0.0,0.0,0.0,0.0,0.0,0.0,0.0,0.0,-0.000145804805712,-0.000729146201606,0.000108419853134,0.0,0.0,0.0,0.0,0.0,0.0,0.0,0.0,0.0,0.125874,-0.147178,9.768645,0.0,0.0,0.0,0.0,0.0,0.0,0.0,0.0,0.0
1659928740619925939,74645,1659928740619925939,imu,-0.001181,-0.009949,0.708541,0.705597,0.0,0.0,0.0,0.0,0.0,0.0,0.0,0.0,0.0,-0.00227088279635,-0.000404672040367,0.000127374128811,0.0,0.0,0.0,0.0,0.0,0.0,0.0,0.0,0.0,0.130834,-0.142753,9.806775,0.0,0.0,0.0,0.0,0.0,0.0,0.0,0.0,0.0
1659928740624289031,74646,1659928740624289031,imu,-0.001181,-0.009941,0.708542,0.705597,0.0,0.0,0.0,0.0,0.0,0.0,0.0,0.0,0.0,0.00261651034813,0.00327540704734,0.00194541379744,0.0,0.0,0.0,0.0,0.0,0.0,0.0,0.0,0.0,0.128388,-0.140191,9.787748,0.0,0.0,0.0,0.0,0.0,0.0,0.0,0.0,0.0
1659928740629327424,74647,1659928740629327424,imu,-0.001176,-0.00994,0.708543,0.705595,0.0,0.0,0.0,0.0,0.0,0.0,0.0,0.0,0.0,0.00075501198112,-0.00259818439098,8.7510808695e-05,0.0,0.0,0.0,0.0,0.0,0.0,0.0,0.0,0.0,0.142607,-0.164318,9.80652,0.0,0.0,0.0,0.0,0.0,0.0,0.0,0.0,0.0
1659928740634184508,74648,1659928740634184508,imu,-0.001172,-0.009942,0.708543,0.705596,0.0,0.0,0.0,0.0,0.0,0.0,0.0,0.0,0.0,0.00197292018645,-0.00229800521293,0.000385054539575,0.0,0.0,0.0,0.0,0.0,0.0,0.0,0.0,0.0,0.1212,-0.164302,9.820954,0.0,0.0,0.0,0.0,0.0,0.0,0.0,0.0,0.0
1659928740639302311,74649,1659928740639302311,imu,-0.00117,-0.009945,0.708544,0.705594,0.0,0.0,0.0,0.0,0.0,0.0,0.0,0.0,0.0,-0.00348997782558,-0.00133289049646,0.000739530910655,0.0,0.0,0.0,0.0,0.0,0.0,0.0,0.0,0.0,0.128525,-0.150161,9.837705,0.0,0.0,0.0,0.0,0.0,0.0,0.0,0.0,0.0
1659928740644264647,74650,1659928740644264647,imu,-0.001169,-0.009949,0.708545,0.705594,0.0,0.0,0.0,0.0,0.0,0.0,0.0,0.0,0.0,0.00135638262819,-0.0025834363588,-0.00235532182557,0.0,0.0,0.0,0.0,0.0,0.0,0.0,0.0,0.0,0.128415,-0.137823,9.790152,0.0,0.0,0.0,0.0,0.0,0.0,0.0,0.0,0.0
1659928740649189966,74651,1659928740649189966,imu,-0.001162,-0.009949,0.708543,0.705595,0.0,0.0,0.0,0.0,0.0,0.0,0.0,0.0,0.0,0.00228940073972,0.000188722452018,-0.000208479579151,0.0,0.0,0.0,0.0,0.0,0.0,0.0,0.0,0.0,0.147083,-0.180701,9.763463,0.0,0.0,0.0,0.0,0.0,0.0,0.0,0.0,0.0
1659928740654335427,74652,1659928740654335427,imu,-0.001164,-0.009946,0.708541,0.705597,0.0,0.0,0.0,0.0,0.0,0.0,0.0,0.0,0.0,0.0010796257687,0.00270653443095,-0.00353298273835,0.0,0.0,0.0,0.0,0.0,0.0,0.0,0.0,0.0,0.133039,-0.147244,9.77098,0.0,0.0,0.0,0.0,0.0,0.0,0.0,0.0,0.0
1659928740659258721,74653,1659928740659258721,imu,-0.001167,-0.009945,0.708538,0.7056,0.0,0.0,0.0,0.0,0.0,0.0,0.0,0.0,0.0,-0.00409073760741,-0.000402054046489,0.00136069359144,0.0,0.0,0.0,0.0,0.0,0.0,0.0,0.0,0.0,0.11388,-0.146962,9.752044,0.0,0.0,0.0,0.0,0.0,0.0,0.0,0.0,0.0
1659928740664211558,74654,1659928740664211558,imu,-0.001167,-0.009949,0.708541,0.705598,0.0,0.0,0.0,0.0,0.0,0.0,0.0,0.0,0.0,0.000774350229232,0.000502183585676,0.000719983223033,0.0,0.0,0.0,0.0,0.0,0.0,0.0,0.0,0.0,0.154667,-0.152556,9.818455,0.0,0.0,0.0,0.0,0.0,0.0,0.0,0.0,0.0
1659928740669352409,74655,1659928740669352409,imu,-0.001164,-0.009947,0.708541,0.705598,0.0,0.0,0.0,0.0,0.0,0.0,0.0,0.0,0.0,0.000772779432906,0.000506878521364,0.000110461888359,0.0,0.0,0.0,0.0,0.0,0.0,0.0,0.0,0.0,0.147391,-0.140152,9.768564,0.0,0.0,0.0,0.0,0.0,0.0,0.0,0.0,0.0
1659928740674286668,74656,1659928740674286668,imu,-0.001168,-0.009947,0.708541,0.705597,0.0,0.0,0.0,0.0,0.0,0.0,0.0,0.0,0.0,-0.0016391434203,0.00267764923182,0.0025836632516,0.0,0.0,0.0,0.0,0.0,0.0,0.0,0.0,0.0,0.137756,-0.1617,9.782744,0.0,0.0,0.0,0.0,0.0,0.0,0.0,0.0,0.0
1659928740679257175,74657,1659928740679257175,imu,-0.001171,-0.009948,0.708542,0.705597,0.0,0.0,0.0,0.0,0.0,0.0,0.0,0.0,0.0,-0.00319520916821,-0.00193949713128,-0.00140076635107,0.0,0.0,0.0,0.0,0.0,0.0,0.0,0.0,0.0,0.118968,-0.152488,9.837747,0.0,0.0,0.0,0.0,0.0,0.0,0.0,0.0,0.0
1659928740684174812,74658,1659928740684174812,imu,-0.001174,-0.009954,0.708541,0.705598,0.0,0.0,0.0,0.0,0.0,0.0,0.0,0.0,0.0,0.000463245290064,0.00021006782877,-0.00141324545522,0.0,0.0,0.0,0.0,0.0,0.0,0.0,0.0,0.0,0.147444,-0.171751,9.835021,0.0,0.0,0.0,0.0,0.0,0.0,0.0,0.0,0.0
1659928740689309378,74659,1659928740689309378,imu,-0.001173,-0.009957,0.70854,0.705599,0.0,0.0,0.0,0.0,0.0,0.0,0.0,0.0,0.0,-0.00166834277869,-0.00102499696311,-0.000491484717362,0.0,0.0,0.0,0.0,0.0,0.0,0.0,0.0,0.0,0.126237,-0.140656,9.844948,0.0,0.0,0.0,0.0,0.0,0.0,0.0,0.0,0.0
1659928740694243288,74660,1659928740694243288,imu,-0.001174,-0.009957,0.70854,0.705598,0.0,0.0,0.0,0.0,0.0,0.0,0.0,0.0,0.0,0.00290218584009,0.000801053766788,0.000400867222598,0.0,0.0,0.0,0.0,0.0,0.0,0.0,0.0,0.0,0.125743,-0.171134,9.777977,0.0,0.0,0.0,0.0,0.0,0.0,0.0,0.0,0.0
1659928740699198499,74661,1659928740699198499,imu,-0.001172,-0.009952,0.708542,0.705597,0.0,0.0,0.0,0.0,0.0,0.0,0.0,0.0,0.0,-0.00103916903664,0.00174916897635,0.00165773117684,0.0,0.0,0.0,0.0,0.0,0.0,0.0,0.0,0.0,0.11635,-0.14473,9.768725,0.0,0.0,0.0,0.0,0.0,0.0,0.0,0.0,0.0
1659928740704326011,74662,1659928740704326011,imu,-0.001171,-0.009951,0.708542,0.705597,0.0,0.0,0.0,0.0,0.0,0.0,0.0,0.0,0.0,0.00168251485222,0.000190363061515,0.000101019657105,0.0,0.0,0.0,0.0,0.0,0.0,0.0,0.0,0.0,0.125948,-0.161864,9.811413,0.0,0.0,0.0,0.0,0.0,0.0,0.0,0.0,0.0
1659928740709285483,74663,1659928740709285483,imu,-0.001165,-0.009954,0.708544,0.705594,0.0,0.0,0.0,0.0,0.0,0.0,0.0,0.0,0.0,0.00136107756388,-0.00386061594553,0.00220689902598,0.0,0.0,0.0,0.0,0.0,0.0,0.0,0.0,0.0,0.137878,-0.147414,9.787627,0.0,0.0,0.0,0.0,0.0,0.0,0.0,0.0,0.0
1659928740714235107,74664,1659928740714235107,imu,-0.001166,-0.009961,0.708546,0.705593,0.0,0.0,0.0,0.0,0.0,0.0,0.0,0.0,0.0,-0.00439575134749,0.000234991130489,-0.000460889095574,0.0,0.0,0.0,0.0,0.0,0.0,0.0,0.0,0.0,0.128425,-0.137843,9.792534,0.0,0.0,0.0,0.0,0.0,0.0,0.0,0.0,0.0
1659928740719341806,74665,1659928740719341806,imu,-0.001166,-0.009965,0.708544,0.705594,0.0,0.0,0.0,0.0,0.0,0.0,0.0,0.0,0.0,0.000461639587153,-0.00104833201521,0.00071089005763,0.0,0.0,0.0,0.0,0.0,0.0,0.0,0.0,0.0,0.142332,-0.180711,9.768259,0.0,0.0,0.0,0.0,0.0,0.0,0.0,0.0,0.0
1659928740724281652,74666,1659928740724281652,imu,-0.00116,-0.00997,0.708546,0.705593,0.0,0.0,0.0,0.0,0.0,0.0,0.0,0.0,0.0,0.000134111099723,-0.00476539462977,-0.000228533412256,0.0,0.0,0.0,0.0,0.0,0.0,0.0,0.0,0.0,0.121238,-0.145,9.797286,0.0,0.0,0.0,0.0,0.0,0.0,0.0,0.0,0.0
1659928740729239238,74667,1659928740729239238,imu,-0.001161,-0.009972,0.708544,0.705594,0.0,0.0,0.0,0.0,0.0,0.0,0.0,0.0,0.0,-0.000441131968442,0.00145810041699,-0.00139692662671,0.0,0.0,0.0,0.0,0.0,0.0,0.0,0.0,0.0,0.102292,-0.171804,9.87582,0.0,0.0,0.0,0.0,0.0,0.0,0.0,0.0,0.0
1659928740734189561,74668,1659928740734189561,imu,-0.001164,-0.009973,0.708544,0.705594,0.0,0.0,0.0,0.0,0.0,0.0,0.0,0.0,0.0,-0.00135521325759,0.0011559141103,-0.00169684400537,0.0,0.0,0.0,0.0,0.0,0.0,0.0,0.0,0.0,0.140528,-0.131016,9.82349,0.0,0.0,0.0,0.0,0.0,0.0,0.0,0.0,0.0
1659928740739314628,74669,1659928740739314628,imu,-0.001164,-0.009973,0.708541,0.705597,0.0,0.0,0.0,0.0,0.0,0.0,0.0,0.0,0.0,0.00287911258738,-0.00197241404097,-0.00236263475513,0.0,0.0,0.0,0.0,0.0,0.0,0.0,0.0,0.0,0.125895,-0.17629,9.823206,0.0,0.0,0.0,0.0,0.0,0.0,0.0,0.0,0.0
1659928740744288558,74670,1659928740744288558,imu,-0.001157,-0.009971,0.708543,0.705595,0.0,0.0,0.0,0.0,0.0,0.0,0.0,0.0,0.0,-0.0013542533265,0.000205652145762,0.000734347282777,0.0,0.0,0.0,0.0,0.0,0.0,0.0,0.0,0.0,0.130944,-0.135711,9.821131,0.0,0.0,0.0,0.0,0.0,0.0,0.0,0.0,0.0
1659928740749196975,74671,1659928740749196975,imu,-0.001158,-0.009971,0.708543,0.705595,0.0,0.0,0.0,0.0,0.0,0.0,0.0,0.0,0.0,0.000780092362471,0.00206409618658,-0.000487575179837,0.0,0.0,0.0,0.0,0.0,0.0,0.0,0.0,0.0,0.152282,-0.15254,9.81847,0.0,0.0,0.0,0.0,0.0,0.0,0.0,0.0,0.0
1659928740754361084,74672,1659928740754361084,imu,-0.001155,-0.00998,0.708545,0.705594,0.0,0.0,0.0,0.0,0.0,0.0,0.0,0.0,0.0,-0.00350517964337,-0.00412979807607,0.00102363560629,0.0,0.0,0.0,0.0,0.0,0.0,0.0,0.0,0.0,0.145101,-0.137909,9.78766,0.0,0.0,0.0,0.0,0.0,0.0,0.0,0.0,0.0
1659928740760218373,74673,1659928740760218373,imu,-0.001152,-0.009984,0.708545,0.705593,0.0,0.0,0.0,0.0,0.0,0.0,0.0,0.0,0.0,-0.00136114737705,-0.000721170046924,0.000117931897557,0.0,0.0,0.0,0.0,0.0,0.0,0.0,0.0,0.0,0.1451,-0.118528,9.754462,0.0,0.0,0.0,0.0,0.0,0.0,0.0,0.0,0.0
1659928740764234910,74674,1659928740764234910,imu,-0.001146,-0.009983,0.708545,0.705593,0.0,0.0,0.0,0.0,0.0,0.0,0.0,0.0,0.0,0.00289511725662,0.000822137344152,-0.00234198751008,0.0,0.0,0.0,0.0,0.0,0.0,0.0,0.0,0.0,0.159263,-0.135272,9.747083,0.0,0.0,0.0,0.0,0.0,0.0,0.0,0.0,0.0
1659928740769350758,74675,1659928740769350758,imu,-0.001142,-0.009982,0.708546,0.705592,0.0,0.0,0.0,0.0,0.0,0.0,0.0,0.0,0.0,0.00106831603515,-0.00136517908762,0.00100859086814,0.0,0.0,0.0,0.0,0.0,0.0,0.0,0.0,0.0,0.14515,-0.138009,9.799573,0.0,0.0,0.0,0.0,0.0,0.0,0.0,0.0,0.0
1659928740774464720,74676,1659928740774464720,imu,-0.001138,-0.009982,0.708545,0.705593,0.0,0.0,0.0,0.0,0.0,0.0,0.0,0.0,0.0,0.00107248737206,0.000201393542388,-0.000808488869401,0.0,0.0,0.0,0.0,0.0,0.0,0.0,0.0,0.0,0.157111,-0.152691,9.832734,0.0,0.0,0.0,0.0,0.0,0.0,0.0,0.0,0.0
1659928740779250984,74677,1659928740779250984,imu,-0.001134,-0.009979,0.708544,0.705594,0.0,0.0,0.0,0.0,0.0,0.0,0.0,0.0,0.0,0.000761155540087,-0.000405893770844,-0.00233450004759,0.0,0.0,0.0,0.0,0.0,0.0,0.0,0.0,0.0,0.14029,-0.154752,9.806614,0.0,0.0,0.0,0.0,0.0,0.0,0.0,0.0,0.0
