%time,field.header.seq,field.header.stamp,field.header.frame_id,field.orientation.x,field.orientation.y,field.orientation.z,field.orientation.w,field.orientation_covariance0,field.orientation_covariance1,field.orientation_covariance2,field.orientation_covariance3,field.orientation_covariance4,field.orientation_covariance5,field.orientation_covariance6,field.orientation_covariance7,field.orientation_covariance8,field.angular_velocity.x,field.angular_velocity.y,field.angular_velocity.z,field.angular_velocity_covariance0,field.angular_velocity_covariance1,field.angular_velocity_covariance2,field.angular_velocity_covariance3,field.angular_velocity_covariance4,field.angular_velocity_covariance5,field.angular_velocity_covariance6,field.angular_velocity_covariance7,field.angular_velocity_covariance8,field.linear_acceleration.x,field.linear_acceleration.y,field.linear_acceleration.z,field.linear_acceleration_covariance0,field.linear_acceleration_covariance1,field.linear_acceleration_covariance2,field.linear_acceleration_covariance3,field.linear_acceleration_covariance4,field.linear_acceleration_covariance5,field.linear_acceleration_covariance6,field.linear_acceleration_covariance7,field.linear_acceleration_covariance8
1659928716714162115,62983,1659928716714162115,imu,-0.0098630718565,-0.00565220739859,0.540323680802,0.841380468237,0.0,0.0,0.0,0.0,0.0,0.0,0.0,0.0,0.0,0.00155373151213,-0.00202449072259,-7.4758308686e-05,0.0,0.0,0.0,0.0,0.0,0.0,0.0,0.0,0.0,0.015802,-0.208606,9.787839,0.0,0.0,0.0,0.0,0.0,0.0,0.0,0.0,0.0
1659928716719327202,62984,1659928716719327202,imu,-0.00985987503698,-0.00566497462942,0.540320182973,0.841382666091,0.0,0.0,0.0,0.0,0.0,0.0,0.0,0.0,0.0,-0.000562471000721,-0.000441796700248,-0.00155473130783,0.0,0.0,0.0,0.0,0.0,0.0,0.0,0.0,0.0,0.010886,-0.227657,9.785327,0.0,0.0,0.0,0.0,0.0,0.0,0.0,0.0,0.0
1659928716724211944,62985,1659928716724211944,imu,-0.00983241830881,-0.0056701784857,0.540318172415,0.841384243485,0.0,0.0,0.0,0.0,0.0,0.0,0.0,0.0,0.0,0.00095571904545,0.000777680920216,-0.000938436081162,0.0,0.0,0.0,0.0,0.0,0.0,0.0,0.0,0.0,0.030285,-0.187249,9.792689,0.0,0.0,0.0,0.0,0.0,0.0,0.0,0.0,0.0
1659928716729198654,62986,1659928716729198654,imu,-0.00984249497324,-0.00568515172229,0.540317896615,0.841384201741,0.0,0.0,0.0,0.0,0.0,0.0,0.0,0.0,0.0,-0.00054843357119,0.00200244986919,-3.04843614878e-06,0.0,0.0,0.0,0.0,0.0,0.0,0.0,0.0,0.0,0.013063,-0.251468,9.775584,0.0,0.0,0.0,0.0,0.0,0.0,0.0,0.0,0.0
1659928716734310731,62987,1659928716734310731,imu,-0.00983351141965,-0.00567492338384,0.540317192984,0.841384827688,0.0,0.0,0.0,0.0,0.0,0.0,0.0,0.0,0.0,0.00336661202547,0.00195904720876,-0.000335357613833,0.0,0.0,0.0,0.0,0.0,0.0,0.0,0.0,0.0,-0.008121,-0.21315,9.778422,0.0,0.0,0.0,0.0,0.0,0.0,0.0,0.0,0.0
1659928716739847446,62988,1659928716739847446,imu,-0.0098305845603,-0.00567083304758,0.54032338667,0.841380911999,0.0,0.0,0.0,0.0,0.0,0.0,0.0,0.0,0.0,4.25517155853e-05,0.00378242651381,0.00272467764965,0.0,0.0,0.0,0.0,0.0,0.0,0.0,0.0,0.0,0.006286,-0.213441,9.802156,0.0,0.0,0.0,0.0,0.0,0.0,0.0,0.0,0.0
1659928716744199294,62989,1659928716744199294,imu,-0.00983013411261,-0.00566687478314,0.540325537014,0.841379563006,0.0,0.0,0.0,0.0,0.0,0.0,0.0,0.0,0.0,0.000620446282066,0.000370803486481,0.00115913746396,0.0,0.0,0.0,0.0,0.0,0.0,0.0,0.0,0.0,-0.015084,-0.220768,9.837976,0.0,0.0,0.0,0.0,0.0,0.0,0.0,0.0,0.0
1659928716749154506,62990,1659928716749154506,imu,-0.00982389835533,-0.00566307359455,0.540326077615,0.841379314262,0.0,0.0,0.0,0.0,0.0,0.0,0.0,0.0,0.0,-0.000888543738989,0.000998755066121,0.000258743974523,0.0,0.0,0.0,0.0,0.0,0.0,0.0,0.0,0.0,-0.005512,-0.203935,9.816609,0.0,0.0,0.0,0.0,0.0,0.0,0.0,0.0,0.0
1659928716754336844,62991,1659928716754336844,imu,-0.00983980251914,-0.00565049440604,0.540326755021,0.841378777964,0.0,0.0,0.0,0.0,0.0,0.0,0.0,0.0,0.0,-0.00148476046261,0.000377911527507,0.000256329322374,0.0,0.0,0.0,0.0,0.0,0.0,0.0,0.0,0.0,-0.046317,-0.227373,9.79523,0.0,0.0,0.0,0.0,0.0,0.0,0.0,0.0,0.0
1659928716761008630,62992,1659928716761008630,imu,-0.00984854335605,-0.00563558819661,0.540328404437,0.841377716426,0.0,0.0,0.0,0.0,0.0,0.0,0.0,0.0,0.0,-0.000862270719312,0.00129006217959,0.000557578459105,0.0,0.0,0.0,0.0,0.0,0.0,0.0,0.0,0.0,-0.036575,-0.215736,9.823858,0.0,0.0,0.0,0.0,0.0,0.0,0.0,0.0,0.0
1659928716764164785,62993,1659928716764164785,imu,-0.00986110091517,-0.00562710173928,0.540327265348,0.841378357659,0.0,0.0,0.0,0.0,0.0,0.0,0.0,0.0,0.0,0.000319251467932,-0.00333016785187,-0.00100006190608,0.0,0.0,0.0,0.0,0.0,0.0,0.0,0.0,0.0,-0.048812,-0.234401,9.78089,0.0,0.0,0.0,0.0,0.0,0.0,0.0,0.0,0.0
1659928716769307173,62994,1659928716769307173,imu,-0.00984722301073,-0.00560988383845,0.540329958455,0.841376905672,0.0,0.0,0.0,0.0,0.0,0.0,0.0,0.0,0.0,0.00123796717143,-0.000859818083826,0.00113303174066,0.0,0.0,0.0,0.0,0.0,0.0,0.0,0.0,0.0,-0.02946,-0.18663,9.764484,0.0,0.0,0.0,0.0,0.0,0.0,0.0,0.0,0.0
1659928716774739544,62995,1659928716774739544,imu,-0.0098722596963,-0.00560938157476,0.540333367696,0.841374426211,0.0,0.0,0.0,0.0,0.0,0.0,0.0,0.0,0.0,-0.00389067049505,-0.0014347236145,0.00145891369551,0.0,0.0,0.0,0.0,0.0,0.0,0.0,0.0,0.0,-0.046497,-0.241539,9.77605,0.0,0.0,0.0,0.0,0.0,0.0,0.0,0.0,0.0
1659928716779218365,62996,1659928716779218365,imu,-0.00986148282763,-0.00559768510205,0.540335664551,0.841373155438,0.0,0.0,0.0,0.0,0.0,0.0,0.0,0.0,0.0,-0.000542034668484,-0.00113240857095,0.00111896551538,0.0,0.0,0.0,0.0,0.0,0.0,0.0,0.0,0.0,-0.024706,-0.189048,9.764433,0.0,0.0,0.0,0.0,0.0,0.0,0.0,0.0,0.0
1659928716784182586,62997,1659928716784182586,imu,-0.00987361833542,-0.00560207143551,0.540335513331,0.841373081035,0.0,0.0,0.0,0.0,0.0,0.0,0.0,0.0,0.0,-0.000550281820638,-0.00295620970552,-0.000112692044987,0.0,0.0,0.0,0.0,0.0,0.0,0.0,0.0,0.0,-0.032047,-0.244338,9.814059,0.0,0.0,0.0,0.0,0.0,0.0,0.0,0.0,0.0
1659928716789251361,62998,1659928716789251361,imu,-0.00987667341093,-0.0056099472069,0.540336013568,0.841372671446,0.0,0.0,0.0,0.0,0.0,0.0,0.0,0.0,0.0,-0.00175069819207,-0.00353587939302,0.000195029185712,0.0,0.0,0.0,0.0,0.0,0.0,0.0,0.0,0.0,-0.019895,-0.22792,9.84033,0.0,0.0,0.0,0.0,0.0,0.0,0.0,0.0,0.0
1659928716797010585,62999,1659928716797010585,imu,-0.00987519642152,-0.00563156391471,0.540335752932,0.841372711755,0.0,0.0,0.0,0.0,0.0,0.0,0.0,0.0,0.0,-0.0026416392746,-0.00441446330909,-0.000108383624795,0.0,0.0,0.0,0.0,0.0,0.0,0.0,0.0,0.0,-0.008111,-0.22286,9.797403,0.0,0.0,0.0,0.0,0.0,0.0,0.0,0.0,0.0
1659928716799161366,63000,1659928716799161366,imu,-0.00987571357876,-0.00563759407707,0.540334810247,0.841373270701,0.0,0.0,0.0,0.0,0.0,0.0,0.0,0.0,0.0,-0.00109775037797,-0.0016066329151,-0.0010037736726,0.0,0.0,0.0,0.0,0.0,0.0,0.0,0.0,0.0,-0.005701,-0.227771,9.811645,0.0,0.0,0.0,0.0,0.0,0.0,0.0,0.0,0.0
1659928716804327919,63001,1659928716804327919,imu,-0.0098785720004,-0.00564230925126,0.540339190639,0.841370392408,0.0,0.0,0.0,0.0,0.0,0.0,0.0,0.0,0.0,-0.00197082333009,0.000236575847398,0.00204409462476,0.0,0.0,0.0,0.0,0.0,0.0,0.0,0.0,0.0,-0.005589,-0.223156,9.830746,0.0,0.0,0.0,0.0,0.0,0.0,0.0,0.0,0.0
1659928716809223975,63002,1659928716809223975,imu,-0.00986283837242,-0.00565814920964,0.540334459648,0.841373508903,0.0,0.0,0.0,0.0,0.0,0.0,0.0,0.0,0.0,0.00343823369337,-0.00222811682588,-0.00226092578068,0.0,0.0,0.0,0.0,0.0,0.0,0.0,0.0,0.0,0.020566,-0.230425,9.823369,0.0,0.0,0.0,0.0,0.0,0.0,0.0,0.0,0.0
1659928716817010018,63003,1659928716817010018,imu,-0.00985716045662,-0.00566929819377,0.540331181752,0.841375605465,0.0,0.0,0.0,0.0,0.0,0.0,0.0,0.0,0.0,0.000400768381348,-0.0018879410386,-0.00100561525587,0.0,0.0,0.0,0.0,0.0,0.0,0.0,0.0,0.0,-0.001087,-0.227481,9.773493,0.0,0.0,0.0,0.0,0.0,0.0,0.0,0.0,0.0
1659928716819316197,63004,1659928716819316197,imu,-0.00986930707272,-0.00568208067278,0.540331531787,0.841375152054,0.0,0.0,0.0,0.0,0.0,0.0,0.0,0.0,0.0,0.000414730607513,0.000578543783418,0.000531174815725,0.0,0.0,0.0,0.0,0.0,0.0,0.0,0.0,0.0,-0.001369,-0.255972,9.754194,0.0,0.0,0.0,0.0,0.0,0.0,0.0,0.0,0.0
1659928716824243263,63005,1659928716824243263,imu,-0.00986190428207,-0.00567922591232,0.540329439015,0.841376602106,0.0,0.0,0.0,0.0,0.0,0.0,0.0,0.0,0.0,0.000718041549667,0.00242680380762,-0.000971427845115,0.0,0.0,0.0,0.0,0.0,0.0,0.0,0.0,0.0,0.003859,-0.210918,9.787896,0.0,0.0,0.0,0.0,0.0,0.0,0.0,0.0,0.0
1659928716829417779,63006,1659928716829417779,imu,-0.00987110076807,-0.00568062432689,0.540328573689,0.84137704053,0.0,0.0,0.0,0.0,0.0,0.0,0.0,0.0,0.0,0.00100264754745,0.000551496811677,-0.000374270297962,0.0,0.0,0.0,0.0,0.0,0.0,0.0,0.0,0.0,-0.015458,-0.244224,9.787742,0.0,0.0,0.0,0.0,0.0,0.0,0.0,0.0,0.0
1659928716834132734,63007,1659928716834132734,imu,-0.00986988613342,-0.00567695983237,0.540327757329,0.841377603775,0.0,0.0,0.0,0.0,0.0,0.0,0.0,0.0,0.0,0.00280972454599,0.00268593894061,-0.000368747882744,0.0,0.0,0.0,0.0,0.0,0.0,0.0,0.0,0.0,-0.003353,-0.230134,9.806846,0.0,0.0,0.0,0.0,0.0,0.0,0.0,0.0,0.0
1659928716845023808,63008,1659928716845023808,imu,-0.00986351729292,-0.00567141000741,0.540319249188,0.841383179706,0.0,0.0,0.0,0.0,0.0,0.0,0.0,0.0,0.0,0.000654560158142,-0.000389498397895,-0.00187987197883,0.0,0.0,0.0,0.0,0.0,0.0,0.0,0.0,0.0,-0.017633,-0.213149,9.785632,0.0,0.0,0.0,0.0,0.0,0.0,0.0,0.0,0.0
1659928716845151689,63009,1659928716845151689,imu,-0.00986330217474,-0.00566004934678,0.54031950463,0.841383094689,0.0,0.0,0.0,0.0,0.0,0.0,0.0,0.0,0.0,0.00186737662116,0.000496218082002,0.00236030049755,0.0,0.0,0.0,0.0,0.0,0.0,0.0,0.0,0.0,-0.029424,-0.210926,9.814321,0.0,0.0,0.0,0.0,0.0,0.0,0.0,0.0,0.0
1659928716849130441,63010,1659928716849130441,imu,-0.00987452104328,-0.00564421798069,0.540314478788,0.841386296923,0.0,0.0,0.0,0.0,0.0,0.0,0.0,0.0,0.0,3.5210641684e-05,0.00146707384929,-0.00307319574274,0.0,0.0,0.0,0.0,0.0,0.0,0.0,0.0,0.0,-0.043749,-0.225341,9.835739,0.0,0.0,0.0,0.0,0.0,0.0,0.0,0.0,0.0
1659928716854321788,63011,1659928716854321788,imu,-0.00987446993288,-0.00562644987763,0.54031391182,0.841386780618,0.0,0.0,0.0,0.0,0.0,0.0,0.0,0.0,0.0,0.00183782798394,-0.000117337640861,-0.000352523770362,0.0,0.0,0.0,0.0,0.0,0.0,0.0,0.0,0.0,-0.041396,-0.213178,9.807231,0.0,0.0,0.0,0.0,0.0,0.0,0.0,0.0,0.0
1659928716859215609,63012,1659928716859215609,imu,-0.00986753504847,-0.00562491944433,0.540314532641,0.841386473537,0.0,0.0,0.0,0.0,0.0,0.0,0.0,0.0,0.0,-0.00119045838102,-0.000715823616188,0.000273451502982,0.0,0.0,0.0,0.0,0.0,0.0,0.0,0.0,0.0,-0.010351,-0.203764,9.79996,0.0,0.0,0.0,0.0,0.0,0.0,0.0,0.0,0.0
1659928716865008714,63013,1659928716865008714,imu,-0.00988080842904,-0.00562818813061,0.540314536425,0.841386293477,0.0,0.0,0.0,0.0,0.0,0.0,0.0,0.0,0.0,-0.00179148323632,-0.00254681438323,-3.99205520419e-05,0.0,0.0,0.0,0.0,0.0,0.0,0.0,0.0,0.0,-0.034596,-0.236719,9.761716,0.0,0.0,0.0,0.0,0.0,0.0,0.0,0.0,0.0
1659928716869300917,63014,1659928716869300917,imu,-0.0098577934849,-0.00562330980376,0.540319426251,0.841383455928,0.0,0.0,0.0,0.0,0.0,0.0,0.0,0.0,0.0,0.0024551315467,-0.000725478360922,0.00265653534933,0.0,0.0,0.0,0.0,0.0,0.0,0.0,0.0,0.0,0.001607,-0.189374,9.783325,0.0,0.0,0.0,0.0,0.0,0.0,0.0,0.0,0.0
1659928716877003569,63015,1659928716877003569,imu,-0.00987918712066,-0.00562070675025,0.540315378756,0.841385821605,0.0,0.0,0.0,0.0,0.0,0.0,0.0,0.0,0.0,-0.00358489897036,0.00119586557431,-0.00123153903468,0.0,0.0,0.0,0.0,0.0,0.0,0.0,0.0,0.0,-0.029709,-0.227299,9.773678,0.0,0.0,0.0,0.0,0.0,0.0,0.0,0.0,0.0
1659928716879239697,63016,1659928716879239697,imu,-0.00987532926641,-0.00561776970777,0.540316834659,0.841384951565,0.0,0.0,0.0,0.0,0.0,0.0,0.0,0.0,0.0,0.00034190205621,-0.00347368640275,0.00143147630758,0.0,0.0,0.0,0.0,0.0,0.0,0.0,0.0,0.0,-0.020116,-0.212934,9.761821,0.0,0.0,0.0,0.0,0.0,0.0,0.0,0.0,0.0
1659928716884131003,63017,1659928716884131003,imu,-0.00987222333685,-0.00562949705288,0.540315970779,0.841385464392,0.0,0.0,0.0,0.0,0.0,0.0,0.0,0.0,0.0,0.000648688606652,-0.000967793177761,-0.000377289475692,0.0,0.0,0.0,0.0,0.0,0.0,0.0,0.0,0.0,0.006072,-0.232382,9.782937,0.0,0.0,0.0,0.0,0.0,0.0,0.0,0.0,0.0
1659928716889302166,63018,1659928716889302166,imu,-0.00985844819868,-0.00562926714902,0.540320461463,0.841382743628,0.0,0.0,0.0,0.0,0.0,0.0,0.0,0.0,0.0,0.000349395860493,-0.000667296443244,0.00204481861195,0.0,0.0,0.0,0.0,0.0,0.0,0.0,0.0,0.0,-0.000735,-0.201557,9.814215,0.0,0.0,0.0,0.0,0.0,0.0,0.0,0.0,0.0
1659928716894205626,63019,1659928716894205626,imu,-0.00985410574313,-0.00564436872847,0.540323257613,0.841380897682,0.0,0.0,0.0,0.0,0.0,0.0,0.0,0.0,0.0,0.000643373027071,-0.000965368961784,0.00141631359693,0.0,0.0,0.0,0.0,0.0,0.0,0.0,0.0,0.0,0.013494,-0.235395,9.851968,0.0,0.0,0.0,0.0,0.0,0.0,0.0,0.0,0.0
1659928716899154971,63020,1659928716899154971,imu,-0.00984831078465,-0.0056361630963,0.54032000069,0.841383112081,0.0,0.0,0.0,0.0,0.0,0.0,0.0,0.0,0.0,0.000335390384353,0.000299050970844,-0.00160354160683,0.0,0.0,0.0,0.0,0.0,0.0,0.0,0.0,0.0,-0.017386,-0.206387,9.833344,0.0,0.0,0.0,0.0,0.0,0.0,0.0,0.0,0.0
1659928716904334934,63021,1659928716904334934,imu,-0.00984643368908,-0.00563471076406,0.540320434992,0.841382864877,0.0,0.0,0.0,0.0,0.0,0.0,0.0,0.0,0.0,0.00154517819166,0.00119643934486,0.000220180359285,0.0,0.0,0.0,0.0,0.0,0.0,0.0,0.0,0.0,-0.005733,-0.225283,9.799751,0.0,0.0,0.0,0.0,0.0,0.0,0.0,0.0,0.0
1659928716909233783,63022,1659928716909233783,imu,-0.00983991845573,-0.00564027864462,0.540315281306,0.84138621337,0.0,0.0,0.0,0.0,0.0,0.0,0.0,0.0,0.0,0.00120257037557,-0.00217408394482,-0.00252010008349,0.0,0.0,0.0,0.0,0.0,0.0,0.0,0.0,0.0,-0.005736,-0.222856,9.795007,0.0,0.0,0.0,0.0,0.0,0.0,0.0,0.0,0.0
1659928716914168112,63023,1659928716914168112,imu,-0.00984182342724,-0.00564544047141,0.540320166982,0.841383019003,0.0,0.0,0.0,0.0,0.0,0.0,0.0,0.0,0.0,-0.00059647648175,-0.00125536813729,0.00235346902335,0.0,0.0,0.0,0.0,0.0,0.0,0.0,0.0,0.0,-0.010569,-0.227541,9.78785,0.0,0.0,0.0,0.0,0.0,0.0,0.0,0.0,0.0
1659928716919296532,63024,1659928716919296532,imu,-0.00984782399011,-0.00564203418118,0.540322549638,0.841381441538,0.0,0.0,0.0,0.0,0.0,0.0,0.0,0.0,0.0,0.00182856646261,0.00151724276547,0.00112468901511,0.0,0.0,0.0,0.0,0.0,0.0,0.0,0.0,0.0,-0.015456,-0.236961,9.775888,0.0,0.0,0.0,0.0,0.0,0.0,0.0,0.0,0.0
1659928716924900994,63025,1659928716924900994,imu,-0.00983496120753,-0.00563487451835,0.540323801222,0.841380836221,0.0,0.0,0.0,0.0,0.0,0.0,0.0,0.0,0.0,0.00330038374668,-0.000654975452473,0.000482318151997,0.0,0.0,0.0,0.0,0.0,0.0,0.0,0.0,0.0,-0.012924,-0.210632,9.766562,0.0,0.0,0.0,0.0,0.0,0.0,0.0,0.0,0.0
1659928716929191800,63026,1659928716929191800,imu,-0.00983492896751,-0.00563593536036,0.540327402188,0.841378516989,0.0,0.0,0.0,0.0,0.0,0.0,0.0,0.0,0.0,0.0011709825651,0.00027600521913,0.00200937795987,0.0,0.0,0.0,0.0,0.0,0.0,0.0,0.0,0.0,-0.008194,-0.227536,9.785451,0.0,0.0,0.0,0.0,0.0,0.0,0.0,0.0,0.0
1659928716934197438,63027,1659928716934197438,imu,-0.00982092327869,-0.00562720803423,0.540325391327,0.841380030357,0.0,0.0,0.0,0.0,0.0,0.0,0.0,0.0,0.0,0.00143996618906,-0.00185732956365,-0.00104611007526,0.0,0.0,0.0,0.0,0.0,0.0,0.0,0.0,0.0,-0.01985,-0.196521,9.797699,0.0,0.0,0.0,0.0,0.0,0.0,0.0,0.0,0.0
1659928716939300575,63028,1659928716939300575,imu,-0.0098313544802,-0.00560907983745,0.540327845019,0.841378453842,0.0,0.0,0.0,0.0,0.0,0.0,0.0,0.0,0.0,0.00205548098696,0.00213725910233,0.0011011633883,0.0,0.0,0.0,0.0,0.0,0.0,0.0,0.0,0.0,-0.041535,-0.229851,9.802327,0.0,0.0,0.0,0.0,0.0,0.0,0.0,0.0,0.0
1659928716944209901,63029,1659928716944209901,imu,-0.00982115006257,-0.00559177531414,0.540330941332,0.84137669976,0.0,0.0,0.0,0.0,0.0,0.0,0.0,0.0,0.0,0.000514118872598,-0.000950557675211,0.00138093599963,0.0,0.0,0.0,0.0,0.0,0.0,0.0,0.0,0.0,-0.033944,-0.189607,9.838356,0.0,0.0,0.0,0.0,0.0,0.0,0.0,0.0,0.0
1659928716949143811,63030,1659928716949143811,imu,-0.00984599973712,-0.00558417197085,0.540328284872,0.841378165797,0.0,0.0,0.0,0.0,0.0,0.0,0.0,0.0,0.0,-0.00160183014574,-0.000598932658483,-0.00132953481279,0.0,0.0,0.0,0.0,0.0,0.0,0.0,0.0,0.0,-0.053599,-0.246449,9.7975,0.0,0.0,0.0,0.0,0.0,0.0,0.0,0.0,0.0
1659928716954321679,63031,1659928716954321679,imu,-0.00983830860131,-0.00557638973133,0.540326161911,0.841379670729,0.0,0.0,0.0,0.0,0.0,0.0,0.0,0.0,0.0,0.00201922855756,-0.0015411843797,-0.00104961092536,0.0,0.0,0.0,0.0,0.0,0.0,0.0,0.0,0.0,-0.024693,-0.210876,9.80476,0.0,0.0,0.0,0.0,0.0,0.0,0.0,0.0,0.0
1659928716959257824,63032,1659928716959257824,imu,-0.00983539774331,-0.00558415457565,0.54032155235,0.841382613461,0.0,0.0,0.0,0.0,0.0,0.0,0.0,0.0,0.0,-0.000415704938897,-0.00242288573406,-0.00223394104208,0.0,0.0,0.0,0.0,0.0,0.0,0.0,0.0,0.0,-0.008072,-0.222941,9.806935,0.0,0.0,0.0,0.0,0.0,0.0,0.0,0.0,0.0
1659928716964196414,63033,1659928716964196414,imu,-0.00983406388832,-0.00559591013802,0.540320709278,0.841383092356,0.0,0.0,0.0,0.0,0.0,0.0,0.0,0.0,0.0,0.000191187081436,-0.00303133593804,-0.000410567404063,0.0,0.0,0.0,0.0,0.0,0.0,0.0,0.0,0.0,-0.005813,-0.232386,9.792544,0.0,0.0,0.0,0.0,0.0,0.0,0.0,0.0,0.0
1659928716969303881,63034,1659928716969303881,imu,-0.00981811984919,-0.00560162302233,0.540321174079,0.841382942057,0.0,0.0,0.0,0.0,0.0,0.0,0.0,0.0,0.0,-0.000400189672953,-0.0011572925361,0.000215314433994,0.0,0.0,0.0,0.0,0.0,0.0,0.0,0.0,0.0,0.008715,-0.19901,9.787964,0.0,0.0,0.0,0.0,0.0,0.0,0.0,0.0,0.0
1659928716974309658,63035,1659928716974309658,imu,-0.00982041336629,-0.0056149742262,0.540320311658,0.841383380128,0.0,0.0,0.0,0.0,0.0,0.0,0.0,0.0,0.0,-0.00130717581834,-0.00236477065767,-0.000392286446545,0.0,0.0,0.0,0.0,0.0,0.0,0.0,0.0,0.0,-0.003506,-0.232241,9.773468,0.0,0.0,0.0,0.0,0.0,0.0,0.0,0.0,0.0
1659928716979191536,63036,1659928716979191536,imu,-0.00981671489811,-0.00563542271279,0.540318796131,0.841384259817,0.0,0.0,0.0,0.0,0.0,0.0,0.0,0.0,0.0,-0.00339694638159,-0.00171015448697,-0.000669057031697,0.0,0.0,0.0,0.0,0.0,0.0,0.0,0.0,0.0,0.018073,-0.220499,9.780577,0.0,0.0,0.0,0.0,0.0,0.0,0.0,0.0,0.0
1659928716984179085,63037,1659928716984179085,imu,-0.0098197158398,-0.00565395924478,0.540320966135,0.841382706906,0.0,0.0,0.0,0.0,0.0,0.0,0.0,0.0,0.0,0.000260033394048,-0.000193671299509,0.00113099599696,0.0,0.0,0.0,0.0,0.0,0.0,0.0,0.0,0.0,0.015443,-0.246628,9.766078,0.0,0.0,0.0,0.0,0.0,0.0,0.0,0.0,0.0
1659928716989337048,63038,1659928716989337048,imu,-0.00980455489086,-0.00564623615843,0.540323401406,0.841381371682,0.0,0.0,0.0,0.0,0.0,0.0,0.0,0.0,0.0,0.00117389846901,0.00226152097951,0.00113079627941,0.0,0.0,0.0,0.0,0.0,0.0,0.0,0.0,0.0,0.003939,-0.194125,9.778504,0.0,0.0,0.0,0.0,0.0,0.0,0.0,0.0,0.0
1659928716994211662,63039,1659928716994211662,imu,-0.00981175227087,-0.00564770058124,0.540324373267,0.841380653836,0.0,0.0,0.0,0.0,0.0,0.0,0.0,0.0,0.0,-4.60750590995e-05,0.00163665460404,0.000520934805493,0.0,0.0,0.0,0.0,0.0,0.0,0.0,0.0,0.0,-0.008167,-0.234859,9.804453,0.0,0.0,0.0,0.0,0.0,0.0,0.0,0.0,0.0
1659928716999174906,63040,1659928716999174906,imu,-0.0098016039905,-0.00564037641645,0.540326666363,0.841379348647,0.0,0.0,0.0,0.0,0.0,0.0,0.0,0.0,0.0,0.000865339176086,0.00283932182617,0.0011211904724,0.0,0.0,0.0,0.0,0.0,0.0,0.0,0.0,0.0,0.00163,-0.201533,9.809435,0.0,0.0,0.0,0.0,0.0,0.0,0.0,0.0,0.0
1659928717004316107,63041,1659928717004316107,imu,-0.00981256970442,-0.00562996998221,0.540326373866,0.841379478368,0.0,0.0,0.0,0.0,0.0,0.0,0.0,0.0,0.0,0.00266188419299,0.00342314961787,-0.000106463386556,0.0,0.0,0.0,0.0,0.0,0.0,0.0,0.0,0.0,-0.022519,-0.241951,9.80687,0.0,0.0,0.0,0.0,0.0,0.0,0.0,0.0,0.0
1659928717009228925,63042,1659928717009228925,imu,-0.00981460303419,-0.00562311278709,0.540327382455,0.8413788528,0.0,0.0,0.0,0.0,0.0,0.0,0.0,0.0,0.0,0.000525960773528,0.0024759084647,0.00050768619525,0.0,0.0,0.0,0.0,0.0,0.0,0.0,0.0,0.0,-0.012747,-0.220683,9.826047,0.0,0.0,0.0,0.0,0.0,0.0,0.0,0.0,0.0
1659928717014197965,63043,1659928717014197965,imu,-0.00980389086035,-0.00560732827834,0.540330376143,0.8413771605,0.0,0.0,0.0,0.0,0.0,0.0,0.0,0.0,0.0,0.00352397420723,0.00119482804868,0.00137511757779,0.0,0.0,0.0,0.0,0.0,0.0,0.0,0.0,0.0,-0.020009,-0.203464,9.771431,0.0,0.0,0.0,0.0,0.0,0.0,0.0,0.0,0.0
1659928717019168542,63044,1659928717019168542,imu,-0.00981008642344,-0.00559537886054,0.540328960528,0.841378076939,0.0,0.0,0.0,0.0,0.0,0.0,0.0,0.0,0.0,0.00136890712304,-0.000324052692344,-0.000745501870409,0.0,0.0,0.0,0.0,0.0,0.0,0.0,0.0,0.0,-0.039184,-0.224951,9.785671,0.0,0.0,0.0,0.0,0.0,0.0,0.0,0.0,0.0
1659928717024326156,63045,1659928717024326156,imu,-0.00982977985743,-0.00557124737835,0.540330149165,0.841377243889,0.0,0.0,0.0,0.0,0.0,0.0,0.0,0.0,0.0,0.0013759180058,0.0027439214239,0.000491526959816,0.0,0.0,0.0,0.0,0.0,0.0,0.0,0.0,0.0,-0.058382,-0.23428,9.773804,0.0,0.0,0.0,0.0,0.0,0.0,0.0,0.0,0.0
1659928717029221234,63046,1659928717029221234,imu,-0.00982562977395,-0.00555989458533,0.540328784527,0.841378243826,0.0,0.0,0.0,0.0,0.0,0.0,0.0,0.0,0.0,0.00223680963643,-0.00158378636324,-0.000759117761525,0.0,0.0,0.0,0.0,0.0,0.0,0.0,0.0,0.0,-0.034192,-0.213324,9.819098,0.0,0.0,0.0,0.0,0.0,0.0,0.0,0.0,0.0
1659928717034161570,63047,1659928717034161570,imu,-0.00982964976168,-0.00554888170901,0.540329352279,0.841377904965,0.0,0.0,0.0,0.0,0.0,0.0,0.0,0.0,0.0,-0.00199084569134,-0.000932418442955,0.000191150703301,0.0,0.0,0.0,0.0,0.0,0.0,0.0,0.0,0.0,-0.039126,-0.20569,9.76677,0.0,0.0,0.0,0.0,0.0,0.0,0.0,0.0,0.0
1659928717039331895,63048,1659928717039331895,imu,-0.00984471436397,-0.00554332609471,0.540329203775,0.841377860823,0.0,0.0,0.0,0.0,0.0,0.0,0.0,0.0,0.0,-0.00107107671349,-0.00123411193123,-0.000121813033956,0.0,0.0,0.0,0.0,0.0,0.0,0.0,0.0,0.0,-0.043944,-0.234631,9.804686,0.0,0.0,0.0,0.0,0.0,0.0,0.0,0.0,0.0
1659928717044217055,63049,1659928717044217055,imu,-0.00984014143434,-0.00553872939954,0.540332188916,0.841376027537,0.0,0.0,0.0,0.0,0.0,0.0,0.0,0.0,0.0,-0.00255869358462,-0.000916074997168,0.00140200939187,0.0,0.0,0.0,0.0,0.0,0.0,0.0,0.0,0.0,-0.01985,-0.196521,9.797699,0.0,0.0,0.0,0.0,0.0,0.0,0.0,0.0,0.0
1659928717049158229,63050,1659928717049158229,imu,-0.0098621524399,-0.00554156545479,0.540332640547,0.841375461112,0.0,0.0,0.0,0.0,0.0,0.0,0.0,0.0,0.0,-0.00434805027784,-0.00211539069325,0.00018619973186,0.0,0.0,0.0,0.0,0.0,0.0,0.0,0.0,0.0,-0.041632,-0.239342,9.7951,0.0,0.0,0.0,0.0,0.0,0.0,0.0,0.0,0.0
1659928717054127339,63051,1659928717054127339,imu,-0.009861248202,-0.00555096692534,0.540338667498,0.841371539189,0.0,0.0,0.0,0.0,0.0,0.0,0.0,0.0,0.0,-9.34423229124e-05,-0.00337239846982,0.00285767286152,0.0,0.0,0.0,0.0,0.0,0.0,0.0,0.0,0.0,-0.012756,-0.230353,9.840263,0.0,0.0,0.0,0.0,0.0,0.0,0.0,0.0,0.0
1659928717059239625,63052,1659928717059239625,imu,-0.00985420033543,-0.0055565308581,0.540342217959,0.841369304879,0.0,0.0,0.0,0.0,0.0,0.0,0.0,0.0,0.0,0.000511229239317,-0.00241115067008,0.00162435189892,0.0,0.0,0.0,0.0,0.0,0.0,0.0,0.0,0.0,-0.008116,-0.218005,9.787913,0.0,0.0,0.0,0.0,0.0,0.0,0.0,0.0,0.0
1659928717064176190,63053,1659928717064176190,imu,-0.00985053660766,-0.00556595280697,0.540338555643,0.841371637496,0.0,0.0,0.0,0.0,0.0,0.0,0.0,0.0,0.0,0.00201736909736,0.000395203985328,-0.00170206998943,0.0,0.0,0.0,0.0,0.0,0.0,0.0,0.0,0.0,0.008489,-0.234885,9.794815,0.0,0.0,0.0,0.0,0.0,0.0,0.0,0.0,0.0
1659928717069155916,63054,1659928717069155916,imu,-0.00986183469303,-0.00558107911811,0.540338068848,0.841371717569,0.0,0.0,0.0,0.0,0.0,0.0,0.0,0.0,0.0,-0.000412293061583,-0.000834123127465,-0.000166712847667,0.0,0.0,0.0,0.0,0.0,0.0,0.0,0.0,0.0,-0.003591,-0.25387,9.789968,0.0,0.0,0.0,0.0,0.0,0.0,0.0,0.0,0.0
1659928717074310945,63055,1659928717074310945,imu,-0.00986149297525,-0.00559624424586,0.540338793838,0.841371155246,0.0,0.0,0.0,0.0,0.0,0.0,0.0,0.0,0.0,0.00140869144042,0.00100210352382,0.000437862039349,0.0,0.0,0.0,0.0,0.0,0.0,0.0,0.0,0.0,0.018031,-0.244636,9.811352,0.0,0.0,0.0,0.0,0.0,0.0,0.0,0.0,0.0
1659928717079200017,63056,1659928717079200017,imu,-0.00984488762365,-0.00562163454188,0.540337570762,0.84137196592,0.0,0.0,0.0,0.0,0.0,0.0,0.0,0.0,0.0,-0.00161919128002,0.000404017184532,-0.000452640488101,0.0,0.0,0.0,0.0,0.0,0.0,0.0,0.0,0.0,0.04919,-0.213654,9.79473,0.0,0.0,0.0,0.0,0.0,0.0,0.0,0.0,0.0
1659928717084564712,63057,1659928717084564712,imu,-0.0098474178785,-0.00563847204658,0.540335634154,0.841373067347,0.0,0.0,0.0,0.0,0.0,0.0,0.0,0.0,0.0,0.000200989528271,0.000390421858631,-0.000763952529853,0.0,0.0,0.0,0.0,0.0,0.0,0.0,0.0,0.0,0.015479,-0.24428,9.770862,0.0,0.0,0.0,0.0,0.0,0.0,0.0,0.0,0.0
1659928717089312563,63058,1659928717089312563,imu,-0.00983358083658,-0.00563878905308,0.540333381494,0.841374673727,0.0,0.0,0.0,0.0,0.0,0.0,0.0,0.0,0.0,-7.79643257962e-05,0.00469445798221,-0.00102385731812,0.0,0.0,0.0,0.0,0.0,0.0,0.0,0.0,0.0,0.02543,-0.199156,9.792621,0.0,0.0,0.0,0.0,0.0,0.0,0.0,0.0,0.0
1659928717094236207,63059,1659928717094236207,imu,-0.00983975235606,-0.0056438211672,0.540334860559,0.841373617973,0.0,0.0,0.0,0.0,0.0,0.0,0.0,0.0,0.0,-9.18543494342e-05,0.00125216802698,0.00077163997515,0.0,0.0,0.0,0.0,0.0,0.0,0.0,0.0,0.0,-0.003374,-0.237357,9.813933,0.0,0.0,0.0,0.0,0.0,0.0,0.0,0.0,0.0
1659928717099192047,63060,1659928717099192047,imu,-0.00983991964225,-0.00563652504372,0.540337149711,0.841372194815,0.0,0.0,0.0,0.0,0.0,0.0,0.0,0.0,0.0,0.000201818217874,-0.000301636287902,0.00105192594032,0.0,0.0,0.0,0.0,0.0,0.0,0.0,0.0,0.0,-0.024747,-0.215612,9.799954,0.0,0.0,0.0,0.0,0.0,0.0,0.0,0.0,0.0
1659928717104297559,63061,1659928717104297559,imu,-0.00984196530633,-0.00563157228978,0.540334782015,0.841373724606,0.0,0.0,0.0,0.0,0.0,0.0,0.0,0.0,0.0,0.000518022951152,0.00371184929196,-0.0010433966155,0.0,0.0,0.0,0.0,0.0,0.0,0.0,0.0,0.0,-0.003272,-0.223031,9.814053,0.0,0.0,0.0,0.0,0.0,0.0,0.0,0.0,0.0
1659928717109226929,63062,1659928717109226929,imu,-0.00984292999893,-0.00561877407595,0.540332674662,0.841375152236,0.0,0.0,0.0,0.0,0.0,0.0,0.0,0.0,0.0,0.000201496752502,0.00183227938469,-0.0010442284006,0.0,0.0,0.0,0.0,0.0,0.0,0.0,0.0,0.0,-0.024761,-0.210736,9.788081,0.0,0.0,0.0,0.0,0.0,0.0,0.0,0.0,0.0
1659928717114207913,63063,1659928717114207913,imu,-0.00984417586355,-0.00561339462307,0.540336128994,0.841372955179,0.0,0.0,0.0,0.0,0.0,0.0,0.0,0.0,0.0,-8.54967970187e-05,0.0033320856876,0.00169534212511,0.0,0.0,0.0,0.0,0.0,0.0,0.0,0.0,0.0,-0.005594,-0.218301,9.821256,0.0,0.0,0.0,0.0,0.0,0.0,0.0,0.0,0.0
1659928717119177163,63064,1659928717119177163,imu,-0.00985597623915,-0.00560017148426,0.540339755327,0.841370576277,0.0,0.0,0.0,0.0,0.0,0.0,0.0,0.0,0.0,-0.00400555523505,0.0014800371533,0.00169537372454,0.0,0.0,0.0,0.0,0.0,0.0,0.0,0.0,0.0,-0.038889,-0.208598,9.828698,0.0,0.0,0.0,0.0,0.0,0.0,0.0,0.0,0.0
1659928717124321227,63065,1659928717124321227,imu,-0.00985444782377,-0.005590296604,0.54033753732,0.841372084279,0.0,0.0,0.0,0.0,0.0,0.0,0.0,0.0,0.0,-7.09536638397e-05,-7.65814943948e-05,-0.00107897630511,0.0,0.0,0.0,0.0,0.0,0.0,0.0,0.0,0.0,-0.02712,-0.208354,9.7905,0.0,0.0,0.0,0.0,0.0,0.0,0.0,0.0,0.0
1659928717129225315,63066,1659928717129225315,imu,-0.00984802074746,-0.00558009700623,0.540339235854,0.84137113642,0.0,0.0,0.0,0.0,0.0,0.0,0.0,0.0,0.0,0.00172512266725,-0.00256081232685,0.000709780541482,0.0,0.0,0.0,0.0,0.0,0.0,0.0,0.0,0.0,-0.034295,-0.208268,9.78578,0.0,0.0,0.0,0.0,0.0,0.0,0.0,0.0,0.0
1659928717134171797,63067,1659928717134171797,imu,-0.00984459807809,-0.00557029403019,0.540344027401,0.841368164221,0.0,0.0,0.0,0.0,0.0,0.0,0.0,0.0,0.0,0.00111895947731,-0.00100582663433,0.00222732592519,0.0,0.0,0.0,0.0,0.0,0.0,0.0,0.0,0.0,-0.029512,-0.210746,9.792877,0.0,0.0,0.0,0.0,0.0,0.0,0.0,0.0,0.0
1659928717139337163,63068,1659928717139337163,imu,-0.00984325095722,-0.00557292810125,0.540345019226,0.841367525568,0.0,0.0,0.0,0.0,0.0,0.0,0.0,0.0,0.0,-0.00131555887187,-0.00311785922761,0.000397694412326,0.0,0.0,0.0,0.0,0.0,0.0,0.0,0.0,0.0,-0.022283,-0.215787,9.819001,0.0,0.0,0.0,0.0,0.0,0.0,0.0,0.0,0.0
1659928717144232311,63069,1659928717144232311,imu,-0.0098243124519,-0.00556793965413,0.540342235559,0.841369567672,0.0,0.0,0.0,0.0,0.0,0.0,0.0,0.0,0.0,0.000506475501307,-0.00154760968196,-0.00141932549731,0.0,0.0,0.0,0.0,0.0,0.0,0.0,0.0,0.0,-0.007925,-0.186906,9.781024,0.0,0.0,0.0,0.0,0.0,0.0,0.0,0.0,0.0
1659928717149187872,63070,1659928717149187872,imu,-0.00982698397047,-0.00557977385959,0.540343703965,0.841368515036,0.0,0.0,0.0,0.0,0.0,0.0,0.0,0.0,0.0,-0.00160220911933,-0.00214933087786,0.000718807444564,0.0,0.0,0.0,0.0,0.0,0.0,0.0,0.0,0.0,-0.005826,-0.229938,9.785416,0.0,0.0,0.0,0.0,0.0,0.0,0.0,0.0,0.0
1659928717154148042,63071,1659928717154148042,imu,-0.00982310651749,-0.00559636162989,0.540345144305,0.841367525129,0.0,0.0,0.0,0.0,0.0,0.0,0.0,0.0,0.0,-0.00249209511493,-0.00273672377844,0.000714142069019,0.0,0.0,0.0,0.0,0.0,0.0,0.0,0.0,0.0,0.006284,-0.220704,9.81401,0.0,0.0,0.0,0.0,0.0,0.0,0.0,0.0,0.0
1659928717159237979,63072,1659928717159237979,imu,-0.00981033694591,-0.00560630247676,0.540348515977,0.841365442565,0.0,0.0,0.0,0.0,0.0,0.0,0.0,0.0,0.0,0.00295123750002,-0.00244449043483,0.00157200991116,0.0,0.0,0.0,0.0,0.0,0.0,0.0,0.0,0.0,0.006192,-0.225359,9.799675,0.0,0.0,0.0,0.0,0.0,0.0,0.0,0.0,0.0
1659928717164197661,63073,1659928717164197661,imu,-0.00979746234574,-0.00562154991138,0.540351186277,0.8413637759,0.0,0.0,0.0,0.0,0.0,0.0,0.0,0.0,0.0,-0.00309496358975,-0.00237817909598,0.00130168728942,0.0,0.0,0.0,0.0,0.0,0.0,0.0,0.0,0.0,0.016009,-0.201764,9.826019,0.0,0.0,0.0,0.0,0.0,0.0,0.0,0.0,0.0
1659928717169146028,63074,1659928717169146028,imu,-0.00980318233041,-0.00562715053332,0.540349375109,0.841364835022,0.0,0.0,0.0,0.0,0.0,0.0,0.0,0.0,0.0,0.000255114812984,0.000406679363179,-0.000828772456771,0.0,0.0,0.0,0.0,0.0,0.0,0.0,0.0,0.0,-0.005955,-0.236941,9.766296,0.0,0.0,0.0,0.0,0.0,0.0,0.0,0.0,0.0
1659928717174303083,63075,1659928717174303083,imu,-0.00978158361805,-0.00563245759179,0.540348255588,0.84136576988,0.0,0.0,0.0,0.0,0.0,0.0,0.0,0.0,0.0,0.00113989708508,-0.00237223527005,-0.000546288096194,0.0,0.0,0.0,0.0,0.0,0.0,0.0,0.0,0.0,0.008683,-0.196523,9.776071,0.0,0.0,0.0,0.0,0.0,0.0,0.0,0.0,0.0
1659928717179229311,63076,1659928717179229311,imu,-0.00978377396004,-0.00563770648577,0.540342104651,0.841369659528,0.0,0.0,0.0,0.0,0.0,0.0,0.0,0.0,0.0,-6.33043288154e-05,0.000751953146811,-0.00292239120769,0.0,0.0,0.0,0.0,0.0,0.0,0.0,0.0,0.0,-0.000938,-0.230209,9.813977,0.0,0.0,0.0,0.0,0.0,0.0,0.0,0.0,0.0
1659928717184166923,63077,1659928717184166923,imu,-0.00977846127013,-0.0056384345981,0.540340325372,0.841370859091,0.0,0.0,0.0,0.0,0.0,0.0,0.0,0.0,0.0,0.000563701028542,0.00410567071931,-0.000760899246588,0.0,0.0,0.0,0.0,0.0,0.0,0.0,0.0,0.0,0.01582,-0.215909,9.804458,0.0,0.0,0.0,0.0,0.0,0.0,0.0,0.0,0.0
1659928717189312384,63078,1659928717189312384,imu,-0.00976706569354,-0.00562467931988,0.540342599843,0.841369622821,0.0,0.0,0.0,0.0,0.0,0.0,0.0,0.0,0.0,0.000858247908696,0.0031265155962,0.00104781308851,0.0,0.0,0.0,0.0,0.0,0.0,0.0,0.0,0.0,-0.005525,-0.191797,9.792881,0.0,0.0,0.0,0.0,0.0,0.0,0.0,0.0,0.0
1659928717194231907,63079,1659928717194231907,imu,-0.00977851806477,-0.00562570668674,0.540338963941,0.841371817959,0.0,0.0,0.0,0.0,0.0,0.0,0.0,0.0,0.0,0.00234135802418,0.00218403777425,-0.00169666589429,0.0,0.0,0.0,0.0,0.0,0.0,0.0,0.0,0.0,-0.010768,-0.251357,9.780504,0.0,0.0,0.0,0.0,0.0,0.0,0.0,0.0,0.0
1659928717199197595,63080,1659928717199197595,imu,-0.00977871518572,-0.00562405813435,0.54033805975,0.841372407371,0.0,0.0,0.0,0.0,0.0,0.0,0.0,0.0,0.0,-0.00280653824039,-0.000272673569308,-0.000450972083043,0.0,0.0,0.0,0.0,0.0,0.0,0.0,0.0,0.0,-0.015079,-0.206242,9.814268,0.0,0.0,0.0,0.0,0.0,0.0,0.0,0.0,0.0
1659928717204141492,63081,1659928717204141492,imu,-0.00979207623327,-0.00562290541721,0.540335751538,0.841373742036,0.0,0.0,0.0,0.0,0.0,0.0,0.0,0.0,0.0,-0.000954129583694,0.00341163847324,-0.00103675662625,0.0,0.0,0.0,0.0,0.0,0.0,0.0,0.0,0.0,-0.010569,-0.237231,9.804449,0.0,0.0,0.0,0.0,0.0,0.0,0.0,0.0,0.0
1659928717209359240,63082,1659928717209359240,imu,-0.0097808715729,-0.00561712102615,0.540337442294,0.841372825184,0.0,0.0,0.0,0.0,0.0,0.0,0.0,0.0,0.0,0.000548210147331,0.000587106086511,0.000751647138593,0.0,0.0,0.0,0.0,0.0,0.0,0.0,0.0,0.0,-0.005625,-0.198859,9.78091,0.0,0.0,0.0,0.0,0.0,0.0,0.0,0.0,0.0
1659928717214226032,63083,1659928717214226032,imu,-0.00978696317493,-0.00560722394854,0.540334114587,0.841374957439,0.0,0.0,0.0,0.0,0.0,0.0,0.0,0.0,0.0,0.00203345302989,-0.000639699406078,-0.00169044655969,0.0,0.0,0.0,0.0,0.0,0.0,0.0,0.0,0.0,-0.036813,-0.229781,9.790382,0.0,0.0,0.0,0.0,0.0,0.0,0.0,0.0,0.0
1659928717219142621,63084,1659928717219142621,imu,-0.00978458026387,-0.00560020218371,0.540331414438,0.841376765959,0.0,0.0,0.0,0.0,0.0,0.0,0.0,0.0,0.0,0.000808944464678,-0.000935110505859,-0.00136466698758,0.0,0.0,0.0,0.0,0.0,0.0,0.0,0.0,0.0,-0.024759,-0.213164,9.792828,0.0,0.0,0.0,0.0,0.0,0.0,0.0,0.0,0.0
1659928717224319581,63085,1659928717224319581,imu,-0.00978480320827,-0.00560940115577,0.540330442838,0.841377326048,0.0,0.0,0.0,0.0,0.0,0.0,0.0,0.0,0.0,-0.000706042882986,-0.00184504124752,-0.00044091349233,0.0,0.0,0.0,0.0,0.0,0.0,0.0,0.0,0.0,-0.005643,-0.227891,9.825941,0.0,0.0,0.0,0.0,0.0,0.0,0.0,0.0,0.0
1659928717229215567,63086,1659928717229215567,imu,-0.00978589073508,-0.00561860663303,0.540334475782,0.841374662017,0.0,0.0,0.0,0.0,0.0,0.0,0.0,0.0,0.0,0.000510409766159,-0.00185304461598,0.00196776592516,0.0,0.0,0.0,0.0,0.0,0.0,0.0,0.0,0.0,-0.005791,-0.234854,9.802055,0.0,0.0,0.0,0.0,0.0,0.0,0.0,0.0,0.0
1659928717234160792,63087,1659928717234160792,imu,-0.00977296975376,-0.00563302294355,0.540334114695,0.841374947697,0.0,0.0,0.0,0.0,0.0,0.0,0.0,0.0,0.0,-0.000708596308072,-0.00273257769976,-0.000161285426655,0.0,0.0,0.0,0.0,0.0,0.0,0.0,0.0,0.0,0.013322,-0.210819,9.768773,0.0,0.0,0.0,0.0,0.0,0.0,0.0,0.0,0.0
1659928717239294030,63088,1659928717239294030,imu,-0.00977247332733,-0.00563887933274,0.540330450546,0.841377267353,0.0,0.0,0.0,0.0,0.0,0.0,0.0,0.0,0.0,0.000816152225254,0.000370453678899,-0.00165730906026,0.0,0.0,0.0,0.0,0.0,0.0,0.0,0.0,0.0,0.001329,-0.229984,9.785369,0.0,0.0,0.0,0.0,0.0,0.0,0.0,0.0,0.0
1659928717244404641,63089,1659928717244404641,imu,-0.00976548341264,-0.0056470537208,0.540328837323,0.841378329692,0.0,0.0,0.0,0.0,0.0,0.0,0.0,0.0,0.0,0.00049721493293,-0.00179002018802,-0.000749134695812,0.0,0.0,0.0,0.0,0.0,0.0,0.0,0.0,0.0,0.001465,-0.220573,9.802128,0.0,0.0,0.0,0.0,0.0,0.0,0.0,0.0,0.0
1659928717249170721,63090,1659928717249170721,imu,-0.00975124631532,-0.00565502367673,0.540330910407,0.841377109958,0.0,0.0,0.0,0.0,0.0,0.0,0.0,0.0,0.0,0.00110907722237,5.44176906158e-05,0.00107755085508,0.0,0.0,0.0,0.0,0.0,0.0,0.0,0.0,0.0,0.018258,-0.211189,9.809247,0.0,0.0,0.0,0.0,0.0,0.0,0.0,0.0,0.0
1659928717254127818,63091,1659928717254127818,imu,-0.00974379283404,-0.00565614128202,0.540330627308,0.841377370601,0.0,0.0,0.0,0.0,0.0,0.0,0.0,0.0,0.0,-0.000708145011529,0.000382394569885,-0.000123662074511,0.0,0.0,0.0,0.0,0.0,0.0,0.0,0.0,0.0,0.001557,-0.206228,9.799864,0.0,0.0,0.0,0.0,0.0,0.0,0.0,0.0,0.0
1659928717259310156,63092,1659928717259310156,imu,-0.00976286122257,-0.00566960469055,0.540331486209,0.841376507358,0.0,0.0,0.0,0.0,0.0,0.0,0.0,0.0,0.0,-9.79139002402e-05,0.000369983080667,0.000476266287432,0.0,0.0,0.0,0.0,0.0,0.0,0.0,0.0,0.0,-0.006022,-0.265873,9.799416,0.0,0.0,0.0,0.0,0.0,0.0,0.0,0.0,0.0
1659928717264213615,63093,1659928717264213615,imu,-0.00974550173545,-0.00567116034084,0.540336782962,0.841373296531,0.0,0.0,0.0,0.0,0.0,0.0,0.0,0.0,0.0,0.00350750088402,-0.0015180691565,0.00254161997533,0.0,0.0,0.0,0.0,0.0,0.0,0.0,0.0,0.0,0.003977,-0.211158,9.816487,0.0,0.0,0.0,0.0,0.0,0.0,0.0,0.0,0.0
1659928717269252148,63094,1659928717269252148,imu,-0.00974608887979,-0.00566874764431,0.540335715273,0.841373991666,0.0,0.0,0.0,0.0,0.0,0.0,0.0,0.0,0.0,0.00228257593197,0.00221702113069,-0.000464244024444,0.0,0.0,0.0,0.0,0.0,0.0,0.0,0.0,0.0,-0.00347,-0.229893,9.778254,0.0,0.0,0.0,0.0,0.0,0.0,0.0,0.0,0.0
1659928717274301647,63095,1659928717274301647,imu,-0.00975161750847,-0.0056700063873,0.540332764711,0.841375813988,0.0,0.0,0.0,0.0,0.0,0.0,0.0,0.0,0.0,-0.000754062912143,0.00160676833658,-0.00134572549126,0.0,0.0,0.0,0.0,0.0,0.0,0.0,0.0,0.0,-0.005721,-0.227731,9.80688,0.0,0.0,0.0,0.0,0.0,0.0,0.0,0.0,0.0
1659928717279210553,63096,1659928717279210553,imu,-0.00974608361334,-0.00567158203909,0.540333036368,0.84137569303,0.0,0.0,0.0,0.0,0.0,0.0,0.0,0.0,0.0,-0.000441828636328,0.00157713682693,0.000173938516289,0.0,0.0,0.0,0.0,0.0,0.0,0.0,0.0,0.0,0.006196,-0.210833,9.775968,0.0,0.0,0.0,0.0,0.0,0.0,0.0,0.0,0.0
1659928717284164299,63097,1659928717284164299,imu,-0.00975838144241,-0.00566251159997,0.540330873326,0.841377000687,0.0,0.0,0.0,0.0,0.0,0.0,0.0,0.0,0.0,0.000164564355556,0.00218148286176,-0.00103482589912,0.0,0.0,0.0,0.0,0.0,0.0,0.0,0.0,0.0,-0.02725,-0.23231,9.799831,0.0,0.0,0.0,0.0,0.0,0.0,0.0,0.0,0.0
1659928717289113784,63098,1659928717289113784,imu,-0.00976688707263,-0.00565019380983,0.540328792573,0.841378321056,0.0,0.0,0.0,0.0,0.0,0.0,0.0,0.0,0.0,0.000159411123803,0.001544872488,-0.00102902195391,0.0,0.0,0.0,0.0,0.0,0.0,0.0,0.0,0.0,-0.031943,-0.222749,9.802324,0.0,0.0,0.0,0.0,0.0,0.0,0.0,0.0,0.0
1659928717294229841,63099,1659928717294229841,imu,-0.00978524314532,-0.00564270334935,0.540331853955,0.841376192031,0.0,0.0,0.0,0.0,0.0,0.0,0.0,0.0,0.0,-0.00134519316954,0.000598547868714,0.00139993175495,0.0,0.0,0.0,0.0,0.0,0.0,0.0,0.0,0.0,-0.039112,-0.237209,9.823695,0.0,0.0,0.0,0.0,0.0,0.0,0.0,0.0,0.0
1659928717299203701,63100,1659928717299203701,imu,-0.00978624903445,-0.00563023672268,0.540331656808,0.841376390455,0.0,0.0,0.0,0.0,0.0,0.0,0.0,0.0,0.0,0.00167230934777,0.000584389536738,-0.00014617517587,0.0,0.0,0.0,0.0,0.0,0.0,0.0,0.0,0.0,-0.029456,-0.218129,9.819027,0.0,0.0,0.0,0.0,0.0,0.0,0.0,0.0,0.0
1659928717304141802,63101,1659928717304141802,imu,-0.00980878140458,-0.00561429541361,0.540332706923,0.841375560213,0.0,0.0,0.0,0.0,0.0,0.0,0.0,0.0,0.0,-0.000434348833725,0.00304695467956,0.000493356610203,0.0,0.0,0.0,0.0,0.0,0.0,0.0,0.0,0.0,-0.046363,-0.239391,9.804661,0.0,0.0,0.0,0.0,0.0,0.0,0.0,0.0,0.0
1659928717309297879,63102,1659928717309297879,imu,-0.00980319790272,-0.00558936108218,0.54033201171,0.841376237765,0.0,0.0,0.0,0.0,0.0,0.0,0.0,0.0,0.0,0.00165386489802,-0.00037179322997,-0.000458176521537,0.0,0.0,0.0,0.0,0.0,0.0,0.0,0.0,0.0,-0.048426,-0.194012,9.805053,0.0,0.0,0.0,0.0,0.0,0.0,0.0,0.0,0.0
1659928717314201338,63103,1659928717314201338,imu,-0.00981386548113,-0.00557351779713,0.540333738619,0.84137510948,0.0,0.0,0.0,0.0,0.0,0.0,0.0,0.0,0.0,0.000743340506364,0.000550757301299,0.000767132330287,0.0,0.0,0.0,0.0,0.0,0.0,0.0,0.0,0.0,-0.046349,-0.224886,9.783337,0.0,0.0,0.0,0.0,0.0,0.0,0.0,0.0,0.0
1659928717319164721,63104,1659928717319164721,imu,-0.00980686661982,-0.00556630563533,0.540336707337,0.841373332305,0.0,0.0,0.0,0.0,0.0,0.0,0.0,0.0,0.0,0.00192480671274,-0.00223390052245,0.00133301215297,0.0,0.0,0.0,0.0,0.0,0.0,0.0,0.0,0.0,-0.027156,-0.210701,9.785714,0.0,0.0,0.0,0.0,0.0,0.0,0.0,0.0,0.0
1659928717324293141,63105,1659928717324293141,imu,-0.00980998000317,-0.00557385947845,0.540339636216,0.841371365045,0.0,0.0,0.0,0.0,0.0,0.0,0.0,0.0,0.0,-0.00260284986537,-0.00156709834186,0.00135956140859,0.0,0.0,0.0,0.0,0.0,0.0,0.0,0.0,0.0,-0.010597,-0.220218,9.768848,0.0,0.0,0.0,0.0,0.0,0.0,0.0,0.0,0.0
1659928717329224677,63106,1659928717329224677,imu,-0.00979709780783,-0.00557584030964,0.540344201671,0.84136857001,0.0,0.0,0.0,0.0,0.0,0.0,0.0,0.0,0.0,0.00345197975852,0.000246479413668,0.00221762737978,0.0,0.0,0.0,0.0,0.0,0.0,0.0,0.0,0.0,0.006233,-0.218176,9.797351,0.0,0.0,0.0,0.0,0.0,0.0,0.0,0.0,0.0
1659928717334165012,63107,1659928717334165012,imu,-0.00980093200625,-0.00558913381183,0.540346248438,0.841367122672,0.0,0.0,0.0,0.0,0.0,0.0,0.0,0.0,0.0,-0.00081262229049,-0.00248564926373,0.00100112596403,0.0,0.0,0.0,0.0,0.0,0.0,0.0,0.0,0.0,-0.005808,-0.237241,9.802035,0.0,0.0,0.0,0.0,0.0,0.0,0.0,0.0,0.0
1659928717339114497,63108,1659928717339114497,imu,-0.00980483836737,-0.00559209815701,0.540347722387,0.841366110855,0.0,0.0,0.0,0.0,0.0,0.0,0.0,0.0,0.0,-0.00109726737016,-0.00091947557896,0.000703112339466,0.0,0.0,0.0,0.0,0.0,0.0,0.0,0.0,0.0,-0.015264,-0.225243,9.802197,0.0,0.0,0.0,0.0,0.0,0.0,0.0,0.0,0.0
1659928717344241939,63109,1659928717344241939,imu,-0.00980581848948,-0.00560821637555,0.540343209336,0.841368890533,0.0,0.0,0.0,0.0,0.0,0.0,0.0,0.0,0.0,-0.000489952866563,-0.000585958505577,-0.00202176399562,0.0,0.0,0.0,0.0,0.0,0.0,0.0,0.0,0.0,0.010906,-0.237387,9.806693,0.0,0.0,0.0,0.0,0.0,0.0,0.0,0.0,0.0
1659928717349232002,63110,1659928717349232002,imu,-0.00981085600803,-0.0056164254981,0.540343376234,0.841368669864,0.0,0.0,0.0,0.0,0.0,0.0,0.0,0.0,0.0,-0.00317798257826,0.000958453670074,0.000143006891434,0.0,0.0,0.0,0.0,0.0,0.0,0.0,0.0,0.0,0.001487,-0.223041,9.811638,0.0,0.0,0.0,0.0,0.0,0.0,0.0,0.0,0.0
1659928717354138534,63111,1659928717354138534,imu,-0.0098111000002,-0.00562933594344,0.540346037774,0.841366871439,0.0,0.0,0.0,0.0,0.0,0.0,0.0,0.0,0.0,-0.000156234355922,-0.00276898428987,0.00129759495445,0.0,0.0,0.0,0.0,0.0,0.0,0.0,0.0,0.0,-0.003367,-0.234949,9.81157,0.0,0.0,0.0,0.0,0.0,0.0,0.0,0.0,0.0
1659928717359296008,63112,1659928717359296008,imu,-0.0098234558637,-0.00563576434368,0.540346090323,0.841366650484,0.0,0.0,0.0,0.0,0.0,0.0,0.0,0.0,0.0,0.00137081783598,0.00156170416995,9.78101233769e-05,0.0,0.0,0.0,0.0,0.0,0.0,0.0,0.0,0.0,-0.005768,-0.256703,9.844767,0.0,0.0,0.0,0.0,0.0,0.0,0.0,0.0,0.0
1659928717364207988,63113,1659928717364207988,imu,-0.0098063827452,-0.00565018427667,0.540343716407,0.841368277518,0.0,0.0,0.0,0.0,0.0,0.0,0.0,0.0,0.0,-0.000471881603004,-0.00212158877713,-0.0011231520778,0.0,0.0,0.0,0.0,0.0,0.0,0.0,0.0,0.0,0.02056,-0.206189,9.78068,0.0,0.0,0.0,0.0,0.0,0.0,0.0,0.0,0.0
1659928717369149301,63114,1659928717369149301,imu,-0.00980977916672,-0.0056562707425,0.540338832518,0.841371333542,0.0,0.0,0.0,0.0,0.0,0.0,0.0,0.0,0.0,-0.000153639694127,0.000673541897222,-0.00230068193838,0.0,0.0,0.0,0.0,0.0,0.0,0.0,0.0,0.0,-0.001131,-0.232236,9.77107,0.0,0.0,0.0,0.0,0.0,0.0,0.0,0.0,0.0
1659928717374375500,63115,1659928717374375500,imu,-0.00978540280088,-0.00566125156678,0.540347759925,0.841365850547,0.0,0.0,0.0,0.0,0.0,0.0,0.0,0.0,0.0,0.00104982449898,-0.0024638110214,0.00402616930147,0.0,0.0,0.0,0.0,0.0,0.0,0.0,0.0,0.0,0.011141,-0.191843,9.785625,0.0,0.0,0.0,0.0,0.0,0.0,0.0,0.0,0.0
1659928717379222736,63116,1659928717379222736,imu,-0.00979122937345,-0.00565967962451,0.540347251875,0.841366119621,0.0,0.0,0.0,0.0,0.0,0.0,0.0,0.0,0.0,0.000155932390953,0.00282504310198,-0.000192390200468,0.0,0.0,0.0,0.0,0.0,0.0,0.0,0.0,0.0,-0.005767,-0.230058,9.799712,0.0,0.0,0.0,0.0,0.0,0.0,0.0,0.0,0.0
1659928717384167053,63117,1659928717384167053,imu,-0.00977534747111,-0.00566341195983,0.540347932015,0.841365842374,0.0,0.0,0.0,0.0,0.0,0.0,0.0,0.0,0.0,0.00195718700688,0.00216549591041,0.000394264204983,0.0,0.0,0.0,0.0,0.0,0.0,0.0,0.0,0.0,0.023055,-0.208852,9.811618,0.0,0.0,0.0,0.0,0.0,0.0,0.0,0.0,0.0
1659928717389122893,63118,1659928717389122893,imu,-0.0097809070516,-0.00565812799902,0.540346932489,0.841366455235,0.0,0.0,0.0,0.0,0.0,0.0,0.0,0.0,0.0,0.00161337921302,-0.00153603375835,-0.000539707672254,0.0,0.0,0.0,0.0,0.0,0.0,0.0,0.0,0.0,-0.032099,-0.232119,9.780802,0.0,0.0,0.0,0.0,0.0,0.0,0.0,0.0,0.0
1659928717394310888,63119,1659928717394310888,imu,-0.00976992668417,-0.0056439145416,0.540347901756,0.841366055786,0.0,0.0,0.0,0.0,0.0,0.0,0.0,0.0,0.0,-0.000185836175494,0.00186563516337,0.000409939058802,0.0,0.0,0.0,0.0,0.0,0.0,0.0,0.0,0.0,-0.012666,-0.186936,9.788201,0.0,0.0,0.0,0.0,0.0,0.0,0.0,0.0,0.0
1659928717399217420,63120,1659928717399217420,imu,-0.00976477416004,-0.00564085097466,0.540354974991,0.841361593483,0.0,0.0,0.0,0.0,0.0,0.0,0.0,0.0,0.0,-0.00168545018624,0.000911454931002,0.00342794655761,0.0,0.0,0.0,0.0,0.0,0.0,0.0,0.0,0.0,-0.005485,-0.201567,9.819012,0.0,0.0,0.0,0.0,0.0,0.0,0.0,0.0,0.0
1659928717404136524,63121,1659928717404136524,imu,-0.00975828902774,-0.00563492395451,0.540353960245,0.841362360148,0.0,0.0,0.0,0.0,0.0,0.0,0.0,0.0,0.0,0.000411006705404,-0.00184795434052,-0.000565536045223,0.0,0.0,0.0,0.0,0.0,0.0,0.0,0.0,0.0,-0.022206,-0.206256,9.821463,0.0,0.0,0.0,0.0,0.0,0.0,0.0,0.0,0.0
1659928717409296372,63122,1659928717409296372,imu,-0.00975303021128,-0.00563485672678,0.54035350876,0.841362711536,0.0,0.0,0.0,0.0,0.0,0.0,0.0,0.0,0.0,-0.00259323166884,-0.000582414880886,-0.000225519407853,0.0,0.0,0.0,0.0,0.0,0.0,0.0,0.0,0.0,-0.007902,-0.199064,9.807134,0.0,0.0,0.0,0.0,0.0,0.0,0.0,0.0,0.0
1659928717414204092,63123,1659928717414204092,imu,-0.00976313070396,-0.00563318063828,0.54035235889,0.841363344101,0.0,0.0,0.0,0.0,0.0,0.0,0.0,0.0,0.0,0.000450436011066,0.00125036163491,-0.000534921200585,0.0,0.0,0.0,0.0,0.0,0.0,0.0,0.0,0.0,-0.017861,-0.236905,9.771139,0.0,0.0,0.0,0.0,0.0,0.0,0.0,0.0,0.0
1659928717419161469,63124,1659928717419161469,imu,-0.00975137541526,-0.00563630602146,0.540354430458,0.84136212906,0.0,0.0,0.0,0.0,0.0,0.0,0.0,0.0,0.0,-0.000171110132933,-0.00215119788835,0.000958716690354,0.0,0.0,0.0,0.0,0.0,0.0,0.0,0.0,0.0,-0.003195,-0.20381,9.799913,0.0,0.0,0.0,0.0,0.0,0.0,0.0,0.0,0.0
1659928717424301971,63125,1659928717424301971,imu,-0.00975584866694,-0.00563847863488,0.540357127612,0.841360330426,0.0,0.0,0.0,0.0,0.0,0.0,0.0,0.0,0.0,-0.000453582790658,0.000636574386615,0.0012736419074,0.0,0.0,0.0,0.0,0.0,0.0,0.0,0.0,0.0,-0.008223,-0.227476,9.778304,0.0,0.0,0.0,0.0,0.0,0.0,0.0,0.0,0.0
1659928717429268707,63126,1659928717429268707,imu,-0.00975180965908,-0.00563277205592,0.540357330239,0.841360285338,0.0,0.0,0.0,0.0,0.0,0.0,0.0,0.0,0.0,-0.00226046572487,3.65622993518e-05,6.36602360059e-05,0.0,0.0,0.0,0.0,0.0,0.0,0.0,0.0,0.0,-0.015236,-0.196231,9.759545,0.0,0.0,0.0,0.0,0.0,0.0,0.0,0.0,0.0
1659928717434176287,63127,1659928717434176287,imu,-0.00975727155664,-0.00563667116044,0.540353642482,0.841362564324,0.0,0.0,0.0,0.0,0.0,0.0,0.0,0.0,0.0,-0.000736786106584,0.000347611760534,-0.00175677532687,0.0,0.0,0.0,0.0,0.0,0.0,0.0,0.0,0.0,-0.008182,-0.229983,9.79258,0.0,0.0,0.0,0.0,0.0,0.0,0.0,0.0,0.0
1659928717439141765,63128,1659928717439141765,imu,-0.00974745875196,-0.00562971154875,0.54035895504,0.841359312722,0.0,0.0,0.0,0.0,0.0,0.0,0.0,0.0,0.0,-0.0025268239336,-0.000291256183648,0.00249436498726,0.0,0.0,0.0,0.0,0.0,0.0,0.0,0.0,0.0,-0.012708,-0.184428,9.773926,0.0,0.0,0.0,0.0,0.0,0.0,0.0,0.0,0.0
1659928717444354764,63129,1659928717444354764,imu,-0.00976615825603,-0.00562397095308,0.540351741906,0.841363766823,0.0,0.0,0.0,0.0,0.0,0.0,0.0,0.0,0.0,0.00110376116773,0.00157639739241,-0.00327777056398,0.0,0.0,0.0,0.0,0.0,0.0,0.0,0.0,0.0,-0.03201,-0.251681,9.835444,0.0,0.0,0.0,0.0,0.0,0.0,0.0,0.0,0.0
1659928717449195225,63130,1659928717449195225,imu,-0.00978024723064,-0.00561524790281,0.540349510169,0.841365094722,0.0,0.0,0.0,0.0,0.0,0.0,0.0,0.0,0.0,-0.00161074572766,0.0012547820949,-0.0011140552738,0.0,0.0,0.0,0.0,0.0,0.0,0.0,0.0,0.0,-0.034265,-0.227709,9.826126,0.0,0.0,0.0,0.0,0.0,0.0,0.0,0.0,0.0
1659928717454137447,63131,1659928717454137447,imu,-0.00978466068413,-0.00559804874908,0.540347938711,0.841366167252,0.0,0.0,0.0,0.0,0.0,0.0,0.0,0.0,0.0,0.000212668146953,0.00153545482428,-0.000813063528856,0.0,0.0,0.0,0.0,0.0,0.0,0.0,0.0,0.0,-0.036677,-0.210681,9.790542,0.0,0.0,0.0,0.0,0.0,0.0,0.0,0.0,0.0
1659928717459312241,63132,1659928717459312241,imu,-0.00980445329132,-0.00559021023264,0.540348830093,0.841365416488,0.0,0.0,0.0,0.0,0.0,0.0,0.0,0.0,0.0,-0.0015875899305,0.00213750491387,0.00042058040945,0.0,0.0,0.0,0.0,0.0,0.0,0.0,0.0,0.0,-0.03445,-0.23702,9.797455,0.0,0.0,0.0,0.0,0.0,0.0,0.0,0.0,0.0
1659928717464214513,63133,1659928717464214513,imu,-0.00979389585141,-0.00559382759057,0.540352109005,0.841363409586,0.0,0.0,0.0,0.0,0.0,0.0,0.0,0.0,0.0,-0.000680285544946,-0.000358292181792,0.001597999859,0.0,0.0,0.0,0.0,0.0,0.0,0.0,0.0,0.0,0.003871,-0.203675,9.778425,0.0,0.0,0.0,0.0,0.0,0.0,0.0,0.0,0.0
1659928717469304101,63134,1659928717469304101,imu,-0.00976670732389,-0.00559823761398,0.540349716135,0.841365233081,0.0,0.0,0.0,0.0,0.0,0.0,0.0,0.0,0.0,0.00560630969762,-0.00560117998704,-0.00122149344135,0.0,0.0,0.0,0.0,0.0,0.0,0.0,0.0,0.0,-0.003141,-0.208765,9.82132,0.0,0.0,0.0,0.0,0.0,0.0,0.0,0.0,0.0
1659928717474157902,63135,1659928717474157902,imu,-0.00976820161322,-0.00559253097036,0.540350604254,0.841364683308,0.0,0.0,0.0,0.0,0.0,0.0,0.0,0.0,0.0,0.00136234180138,-0.00214766296682,0.000357248395437,0.0,0.0,0.0,0.0,0.0,0.0,0.0,0.0,0.0,-0.032099,-0.222429,9.764203,0.0,0.0,0.0,0.0,0.0,0.0,0.0,0.0,0.0
1659928717479277312,63136,1659928717479277312,imu,-0.00978027204571,-0.00560075043331,0.540347498757,0.841366482848,0.0,0.0,0.0,0.0,0.0,0.0,0.0,0.0,0.0,-0.00135958895303,-0.00147968426815,-0.0014308571007,0.0,0.0,0.0,0.0,0.0,0.0,0.0,0.0,0.0,-0.017856,-0.241761,9.78063,0.0,0.0,0.0,0.0,0.0,0.0,0.0,0.0,0.0
1659928717484665963,63137,1659928717484665963,imu,-0.00978028716213,-0.00560442369011,0.540347030751,0.841366758778,0.0,0.0,0.0,0.0,0.0,0.0,0.0,0.0,0.0,0.000161094905874,-0.00148404956986,-0.000221463122325,0.0,0.0,0.0,0.0,0.0,0.0,0.0,0.0,0.0,-0.012937,-0.225138,9.787886,0.0,0.0,0.0,0.0,0.0,0.0,0.0,0.0,0.0
1659928717489160847,63138,1659928717489160847,imu,-0.00977820987745,-0.00561622906228,0.54034367649,0.841368858385,0.0,0.0,0.0,0.0,0.0,0.0,0.0,0.0,0.0,0.00225764373441,-0.00208625085805,-0.00174885068423,0.0,0.0,0.0,0.0,0.0,0.0,0.0,0.0,0.0,0.001329,-0.239674,9.80197,0.0,0.0,0.0,0.0,0.0,0.0,0.0,0.0,0.0
1659928717494352125,63139,1659928717494352125,imu,-0.00978805438096,-0.00562301064716,0.540341917033,0.841369828577,0.0,0.0,0.0,0.0,0.0,0.0,0.0,0.0,0.0,-0.00196493263391,-0.000507656335725,-0.000781877058894,0.0,0.0,0.0,0.0,0.0,0.0,0.0,0.0,0.0,-0.012829,-0.235049,9.830693,0.0,0.0,0.0,0.0,0.0,0.0,0.0,0.0,0.0
1659928717499272974,63140,1659928717499272974,imu,-0.00978966761538,-0.0056190797485,0.540344065015,0.841368456596,0.0,0.0,0.0,0.0,0.0,0.0,0.0,0.0,0.0,-0.00132846614756,0.00132394062563,0.00104513591563,0.0,0.0,0.0,0.0,0.0,0.0,0.0,0.0,0.0,-0.012765,-0.21338,9.809429,0.0,0.0,0.0,0.0,0.0,0.0,0.0,0.0,0.0
1659928717504231259,63141,1659928717504231259,imu,-0.00978403390083,-0.00562300091179,0.540343554875,0.841368823553,0.0,0.0,0.0,0.0,0.0,0.0,0.0,0.0,0.0,0.00198869013603,0.000990836821759,-0.000200349343082,0.0,0.0,0.0,0.0,0.0,0.0,0.0,0.0,0.0,0.006172,-0.225319,9.79491,0.0,0.0,0.0,0.0,0.0,0.0,0.0,0.0,0.0
1659928717510006904,63142,1659928717510006904,imu,-0.00980766989638,-0.00562471610034,0.540343011263,0.841368886018,0.0,0.0,0.0,0.0,0.0,0.0,0.0,0.0,0.0,-0.00313240496049,0.00316634596708,-0.000142397226083,0.0,0.0,0.0,0.0,0.0,0.0,0.0,0.0,0.0,-0.01538,-0.244384,9.806803,0.0,0.0,0.0,0.0,0.0,0.0,0.0,0.0,0.0
1659928717517035512,63143,1659928717517035512,imu,-0.0098180089762,-0.00563258757356,0.540341393245,0.841369751894,0.0,0.0,0.0,0.0,0.0,0.0,0.0,0.0,0.0,-0.000401723971956,0.00188960964854,-0.000472967340676,0.0,0.0,0.0,0.0,0.0,0.0,0.0,0.0,0.0,0.003778,-0.244665,9.82574,0.0,0.0,0.0,0.0,0.0,0.0,0.0,0.0,0.0
1659928717519180915,63144,1659928717519180915,imu,-0.00980026223882,-0.00564091909617,0.54033924687,0.841371281411,0.0,0.0,0.0,0.0,0.0,0.0,0.0,0.0,0.0,0.00138302495284,-0.00150864897073,-0.00231765242173,0.0,0.0,0.0,0.0,0.0,0.0,0.0,0.0,0.0,0.018241,-0.203886,9.792627,0.0,0.0,0.0,0.0,0.0,0.0,0.0,0.0,0.0
1659928717524125511,63145,1659928717524125511,imu,-0.00979656908189,-0.00564689650253,0.540335663436,0.84137358564,0.0,0.0,0.0,0.0,0.0,0.0,0.0,0.0,0.0,0.00138306954726,0.000653599858777,-0.00167515331736,0.0,0.0,0.0,0.0,0.0,0.0,0.0,0.0,0.0,0.006028,-0.227446,9.763915,0.0,0.0,0.0,0.0,0.0,0.0,0.0,0.0,0.0
1659928717529343538,63146,1659928717529343538,imu,-0.00978795622385,-0.00564208796591,0.540337310007,0.841372660699,0.0,0.0,0.0,0.0,0.0,0.0,0.0,0.0,0.0,-0.00101681961817,0.00310355055425,0.000792313804173,0.0,0.0,0.0,0.0,0.0,0.0,0.0,0.0,0.0,0.006307,-0.196527,9.778468,0.0,0.0,0.0,0.0,0.0,0.0,0.0,0.0,0.0
1659928717534199225,63147,1659928717534199225,imu,-0.00978237059544,-0.00565213652609,0.540333795822,0.841374915047,0.0,0.0,0.0,0.0,0.0,0.0,0.0,0.0,0.0,0.000174455468875,0.000316535614591,-0.00165917151576,0.0,0.0,0.0,0.0,0.0,0.0,0.0,0.0,0.0,0.013237,-0.222757,9.768674,0.0,0.0,0.0,0.0,0.0,0.0,0.0,0.0,0.0
1659928717539962298,63148,1659928717539962298,imu,-0.00978302458863,-0.00563198420817,0.540334225129,0.841374766878,0.0,0.0,0.0,0.0,0.0,0.0,0.0,0.0,0.0,0.000506329204441,0.00521592455454,0.000201703162265,0.0,0.0,0.0,0.0,0.0,0.0,0.0,0.0,0.0,-0.015141,-0.203694,9.795228,0.0,0.0,0.0,0.0,0.0,0.0,0.0,0.0,0.0
1659928717544315612,63149,1659928717544315612,imu,-0.00979245139736,-0.00562886120273,0.540333935334,0.841374864222,0.0,0.0,0.0,0.0,0.0,0.0,0.0,0.0,0.0,-0.0019146675329,0.00364487594682,-9.45365877372e-05,0.0,0.0,0.0,0.0,0.0,0.0,0.0,0.0,0.0,-0.010484,-0.225293,9.804549,0.0,0.0,0.0,0.0,0.0,0.0,0.0,0.0,0.0
1659928717549208316,63150,1659928717549208316,imu,-0.00978755851625,-0.00562810447077,0.540330554617,0.841377097315,0.0,0.0,0.0,0.0,0.0,0.0,0.0,0.0,0.0,0.00168550206844,-0.000707305875388,-0.00166224341167,0.0,0.0,0.0,0.0,0.0,0.0,0.0,0.0,0.0,-0.010411,-0.220598,9.814117,0.0,0.0,0.0,0.0,0.0,0.0,0.0,0.0,0.0
1659928717554193420,63151,1659928717554193420,imu,-0.00978902655202,-0.00561528187765,0.540333545656,0.841375245064,0.0,0.0,0.0,0.0,0.0,0.0,0.0,0.0,0.0,-0.000411525541096,0.00236441437889,0.0014107151346,0.0,0.0,0.0,0.0,0.0,0.0,0.0,0.0,0.0,-0.022135,-0.208824,9.842886,0.0,0.0,0.0,0.0,0.0,0.0,0.0,0.0,0.0
1659928717559404183,63152,1659928717559404183,imu,-0.00979932479496,-0.00559841317721,0.540332696128,0.841375783166,0.0,0.0,0.0,0.0,0.0,0.0,0.0,0.0,0.0,-0.00190903816703,0.0035941714561,-0.000392797639133,0.0,0.0,0.0,0.0,0.0,0.0,0.0,0.0,0.0,-0.031751,-0.211031,9.828631,0.0,0.0,0.0,0.0,0.0,0.0,0.0,0.0,0.0
1659928717564242969,63153,1659928717564242969,imu,-0.00980215803343,-0.00558757821796,0.540328197321,0.841378711311,0.0,0.0,0.0,0.0,0.0,0.0,0.0,0.0,0.0,0.00140006627156,0.00109118572536,-0.00224324342121,0.0,0.0,0.0,0.0,0.0,0.0,0.0,0.0,0.0,-0.027263,-0.220172,9.776104,0.0,0.0,0.0,0.0,0.0,0.0,0.0,0.0,0.0
1659928717569189800,63154,1659928717569189800,imu,-0.00980008837215,-0.00558315949525,0.540328733705,0.841378420291,0.0,0.0,0.0,0.0,0.0,0.0,0.0,0.0,0.0,-0.001330691041,-0.00168709226858,0.000193653763734,0.0,0.0,0.0,0.0,0.0,0.0,0.0,0.0,0.0,-0.024786,-0.205841,9.773826,0.0,0.0,0.0,0.0,0.0,0.0,0.0,0.0,0.0
1659928717574129577,63155,1659928717574129577,imu,-0.00980524677091,-0.0055722191964,0.540329258951,0.841378095407,0.0,0.0,0.0,0.0,0.0,0.0,0.0,0.0,0.0,-0.000404443588639,0.000168255953741,0.000198283154743,0.0,0.0,0.0,0.0,0.0,0.0,0.0,0.0,0.0,-0.034356,-0.215411,9.78334,0.0,0.0,0.0,0.0,0.0,0.0,0.0,0.0,0.0
1659928717579281463,63156,1659928717579281463,imu,-0.00981571983703,-0.00557240078849,0.540327809713,0.841378902781,0.0,0.0,0.0,0.0,0.0,0.0,0.0,0.0,0.0,-0.00311871089096,-0.00134568092429,-0.000698998605206,0.0,0.0,0.0,0.0,0.0,0.0,0.0,0.0,0.0,-0.029538,-0.222804,9.807074,0.0,0.0,0.0,0.0,0.0,0.0,0.0,0.0,0.0
1659928717584213488,63157,1659928717584213488,imu,-0.00980202243775,-0.00556294705898,0.540325205764,0.841380797257,0.0,0.0,0.0,0.0,0.0,0.0,0.0,0.0,0.0,0.000826547235152,-0.000431067687141,-0.0013192448712,0.0,0.0,0.0,0.0,0.0,0.0,0.0,0.0,0.0,-0.015212,-0.191436,9.757202,0.0,0.0,0.0,0.0,0.0,0.0,0.0,0.0,0.0
1659928717589137480,63158,1659928717589137480,imu,-0.00981450537766,-0.00556378695189,0.540324419321,0.84138115123,0.0,0.0,0.0,0.0,0.0,0.0,0.0,0.0,0.0,-0.000985914477804,-0.000729256254494,-0.000389051372038,0.0,0.0,0.0,0.0,0.0,0.0,0.0,0.0,0.0,-0.027363,-0.236925,9.780731,0.0,0.0,0.0,0.0,0.0,0.0,0.0,0.0,0.0
1659928717594306618,63159,1659928717594306618,imu,-0.0097977866902,-0.00557056825586,0.540327627838,0.841379240735,0.0,0.0,0.0,0.0,0.0,0.0,0.0,0.0,0.0,-0.00129509035018,-0.0044230912759,0.00140481496314,0.0,0.0,0.0,0.0,0.0,0.0,0.0,0.0,0.0,-0.005412,-0.194407,9.823813,0.0,0.0,0.0,0.0,0.0,0.0,0.0,0.0,0.0
1659928717599218528,63160,1659928717599218528,imu,-0.00981186596698,-0.00557549466398,0.540329306697,0.841377965881,0.0,0.0,0.0,0.0,0.0,0.0,0.0,0.0,0.0,-0.0015668934048,-0.001298230315,0.000812412172354,0.0,0.0,0.0,0.0,0.0,0.0,0.0,0.0,0.0,-0.024872,-0.241958,9.814012,0.0,0.0,0.0,0.0,0.0,0.0,0.0,0.0,0.0
1659928717604167663,63161,1659928717604167663,imu,-0.0098104536057,-0.00558729766417,0.540328367045,0.841378507493,0.0,0.0,0.0,0.0,0.0,0.0,0.0,0.0,0.0,-0.00184810811811,-4.43738915507e-05,-0.000391108374413,0.0,0.0,0.0,0.0,0.0,0.0,0.0,0.0,0.0,0.008811,-0.223389,9.852077,0.0,0.0,0.0,0.0,0.0,0.0,0.0,0.0,0.0
1659928717609348674,63162,1659928717609348674,imu,-0.00981316360304,-0.00559057935544,0.540326123933,0.841379894601,0.0,0.0,0.0,0.0,0.0,0.0,0.0,0.0,0.0,-0.00122255509733,0.00118633480927,-0.000986251885819,0.0,0.0,0.0,0.0,0.0,0.0,0.0,0.0,0.0,-0.003309,-0.222913,9.8045,0.0,0.0,0.0,0.0,0.0,0.0,0.0,0.0,0.0
1659928717614238793,63163,1659928717614238793,imu,-0.00979888699032,-0.00559379601879,0.54032898127,0.84137820465,0.0,0.0,0.0,0.0,0.0,0.0,0.0,0.0,0.0,0.00359631035523,-0.00102749910406,0.00138371640609,0.0,0.0,0.0,0.0,0.0,0.0,0.0,0.0,0.0,0.003899,-0.218223,9.809258,0.0,0.0,0.0,0.0,0.0,0.0,0.0,0.0,0.0
1659928717619177383,63164,1659928717619177383,imu,-0.00979260473848,-0.00560126468343,0.540328051928,0.841378824922,0.0,0.0,0.0,0.0,0.0,0.0,0.0,0.0,0.0,-4.68184376002e-05,0.000250000115662,-0.000403042443713,0.0,0.0,0.0,0.0,0.0,0.0,0.0,0.0,0.0,0.008621,-0.218153,9.797314,0.0,0.0,0.0,0.0,0.0,0.0,0.0,0.0,0.0
1659928717624133712,63165,1659928717624133712,imu,-0.00978915546709,-0.00560160108581,0.540330292712,0.841377423799,0.0,0.0,0.0,0.0,0.0,0.0,0.0,0.0,0.0,0.000567909650369,0.00176896401186,0.00111619696711,0.0,0.0,0.0,0.0,0.0,0.0,0.0,0.0,0.0,0.001436,-0.218048,9.790212,0.0,0.0,0.0,0.0,0.0,0.0,0.0,0.0,0.0
1659928717629358374,63166,1659928717629358374,imu,-0.0097826504643,-0.00560070484884,0.540330661798,0.841377268397,0.0,0.0,0.0,0.0,0.0,0.0,0.0,0.0,0.0,0.000858924134867,0.00144884424256,0.000195273747253,0.0,0.0,0.0,0.0,0.0,0.0,0.0,0.0,0.0,0.00147,-0.213273,9.790252,0.0,0.0,0.0,0.0,0.0,0.0,0.0,0.0,0.0
1659928717634251636,63167,1659928717634251636,imu,-0.00978159481882,-0.00561866575523,0.540329649913,0.84137781075,0.0,0.0,0.0,0.0,0.0,0.0,0.0,0.0,0.0,-6.94134797103e-05,-0.00132167547027,-0.000423478871473,0.0,0.0,0.0,0.0,0.0,0.0,0.0,0.0,0.0,0.013177,-0.237125,9.778065,0.0,0.0,0.0,0.0,0.0,0.0,0.0,0.0,0.0
1659928717639149927,63168,1659928717639149927,imu,-0.0097673569743,-0.00561274615329,0.540330085747,0.841377735773,0.0,0.0,0.0,0.0,0.0,0.0,0.0,0.0,0.0,0.00114654765366,0.000523400819148,0.00018839805591,0.0,0.0,0.0,0.0,0.0,0.0,0.0,0.0,0.0,-0.003122,-0.196649,9.804718,0.0,0.0,0.0,0.0,0.0,0.0,0.0,0.0,0.0
1659928717644308798,63169,1659928717644308798,imu,-0.00977586089966,-0.00562382091483,0.540329750262,0.841377778506,0.0,0.0,0.0,0.0,0.0,0.0,0.0,0.0,0.0,0.000522170016783,-0.00131996491349,-0.000124123464644,0.0,0.0,0.0,0.0,0.0,0.0,0.0,0.0,0.0,-0.008246,-0.249187,9.809078,0.0,0.0,0.0,0.0,0.0,0.0,0.0,0.0,0.0
1659928717649227203,63170,1659928717649227203,imu,-0.00977445331039,-0.00561248271381,0.540330254918,0.84137754648,0.0,0.0,0.0,0.0,0.0,0.0,0.0,0.0,0.0,0.000827309396455,0.000225929826735,0.000187841703795,0.0,0.0,0.0,0.0,0.0,0.0,0.0,0.0,0.0,-0.026988,-0.211004,9.826197,0.0,0.0,0.0,0.0,0.0,0.0,0.0,0.0,0.0
1659928717654184091,63171,1659928717654184091,imu,-0.0097831031842,-0.00561179844753,0.540331913509,0.841376385368,0.0,0.0,0.0,0.0,0.0,0.0,0.0,0.0,0.0,-0.000382580476006,0.000226953492791,0.000798789053304,0.0,0.0,0.0,0.0,0.0,0.0,0.0,0.0,0.0,-0.020112,-0.232277,9.794999,0.0,0.0,0.0,0.0,0.0,0.0,0.0,0.0,0.0
1659928717659332416,63172,1659928717659332416,imu,-0.00977838747233,-0.00561175230085,0.540331025416,0.841377010827,0.0,0.0,0.0,0.0,0.0,0.0,0.0,0.0,0.0,-0.000385372436171,-0.000380832893375,-0.000420578114898,0.0,0.0,0.0,0.0,0.0,0.0,0.0,0.0,0.0,-0.008063,-0.210804,9.787951,0.0,0.0,0.0,0.0,0.0,0.0,0.0,0.0,0.0
1659928717664248097,63173,1659928717664248097,imu,-0.00979179814949,-0.00560756959069,0.540333909873,0.841375030348,0.0,0.0,0.0,0.0,0.0,0.0,0.0,0.0,0.0,0.0011323943676,0.000521367261927,0.00138892974747,0.0,0.0,0.0,0.0,0.0,0.0,0.0,0.0,0.0,-0.02963,-0.244375,9.82117,0.0,0.0,0.0,0.0,0.0,0.0,0.0,0.0,0.0
1659928717669199538,63174,1659928717669199538,imu,-0.00979025607609,-0.00561230692605,0.540331145836,0.841376791774,0.0,0.0,0.0,0.0,0.0,0.0,0.0,0.0,0.0,-0.00160365173409,-0.0012895804609,-0.0013328003599,0.0,0.0,0.0,0.0,0.0,0.0,0.0,0.0,0.0,-0.008048,-0.21568,9.799824,0.0,0.0,0.0,0.0,0.0,0.0,0.0,0.0,0.0
