%time,field.header.seq,field.header.stamp,field.header.frame_id,field.orientation.x,field.orientation.y,field.orientation.z,field.orientation.w,field.orientation_covariance0,field.orientation_covariance1,field.orientation_covariance2,field.orientation_covariance3,field.orientation_covariance4,field.orientation_covariance5,field.orientation_covariance6,field.orientation_covariance7,field.orientation_covariance8,field.angular_velocity.x,field.angular_velocity.y,field.angular_velocity.z,field.angular_velocity_covariance0,field.angular_velocity_covariance1,field.angular_velocity_covariance2,field.angular_velocity_covariance3,field.angular_velocity_covariance4,field.angular_velocity_covariance5,field.angular_velocity_covariance6,field.angular_velocity_covariance7,field.angular_velocity_covariance8,field.linear_acceleration.x,field.linear_acceleration.y,field.linear_acceleration.z,field.linear_acceleration_covariance0,field.linear_acceleration_covariance1,field.linear_acceleration_covariance2,field.linear_acceleration_covariance3,field.linear_acceleration_covariance4,field.linear_acceleration_covariance5,field.linear_acceleration_covariance6,field.linear_acceleration_covariance7,field.linear_acceleration_covariance8
1659939461186396727,165212,1659939461186396727,imu,-0.011416,-0.014398,-0.006855,0.999807,0.0,0.0,0.0,0.0,0.0,0.0,0.0,0.0,0.0,0.00149414146605,0.000532185795518,-0.000787597278255,0.0,0.0,0.0,0.0,0.0,0.0,0.0,0.0,0.0,0.244627,-0.239221,9.835214,0.0,0.0,0.0,0.0,0.0,0.0,0.0,0.0,0.0
1659939461190696374,165213,1659939461190696374,imu,-0.011416,-0.014396,-0.006858,0.999807,0.0,0.0,0.0,0.0,0.0,0.0,0.0,0.0,0.0,-0.000317231044842,0.00145694849969,0.00167164145098,0.0,0.0,0.0,0.0,0.0,0.0,0.0,0.0,0.0,0.287671,-0.205806,9.804238,0.0,0.0,0.0,0.0,0.0,0.0,0.0,0.0,0.0
1659939461195636167,165214,1659939461195636167,imu,-0.011415,-0.014392,-0.006855,0.999807,0.0,0.0,0.0,0.0,0.0,0.0,0.0,0.0,0.0,0.000266738669582,-0.00226608314091,0.000725062131156,0.0,0.0,0.0,0.0,0.0,0.0,0.0,0.0,0.0,0.28491,-0.255891,9.799072,0.0,0.0,0.0,0.0,0.0,0.0,0.0,0.0,0.0
1659939461200584340,165215,1659939461200584340,imu,-0.011417,-0.014397,-0.006853,0.999807,0.0,0.0,0.0,0.0,0.0,0.0,0.0,0.0,0.0,-0.000634863515413,-0.000394706210339,0.000441201781612,0.0,0.0,0.0,0.0,0.0,0.0,0.0,0.0,0.0,0.299465,-0.210457,9.780294,0.0,0.0,0.0,0.0,0.0,0.0,0.0,0.0,0.0
1659939461205711860,165216,1659939461205711860,imu,-0.011421,-0.014399,-0.006853,0.999807,0.0,0.0,0.0,0.0,0.0,0.0,0.0,0.0,0.0,-0.00123443647335,0.00116415206437,0.000152681402964,0.0,0.0,0.0,0.0,0.0,0.0,0.0,0.0,0.0,0.275435,-0.253543,9.811067,0.0,0.0,0.0,0.0,0.0,0.0,0.0,0.0,0.0
1659939461210687341,165217,1659939461210687341,imu,-0.011422,-0.014391,-0.006853,0.999807,0.0,0.0,0.0,0.0,0.0,0.0,0.0,0.0,0.0,0.00119225186533,-0.000103218771963,0.00134350209831,0.0,0.0,0.0,0.0,0.0,0.0,0.0,0.0,0.0,0.266153,-0.203142,9.787717,0.0,0.0,0.0,0.0,0.0,0.0,0.0,0.0,0.0
1659939461215602760,165218,1659939461215602760,imu,-0.011417,-0.014386,-0.006854,0.999807,0.0,0.0,0.0,0.0,0.0,0.0,0.0,0.0,0.0,0.00211998162923,0.0042636473764,-0.00198386340086,0.0,0.0,0.0,0.0,0.0,0.0,0.0,0.0,0.0,0.282548,-0.24139,9.780145,0.0,0.0,0.0,0.0,0.0,0.0,0.0,0.0,0.0
1659939461220740756,165219,1659939461220740756,imu,-0.011417,-0.01438,-0.006855,0.999807,0.0,0.0,0.0,0.0,0.0,0.0,0.0,0.0,0.0,0.00120134503073,0.00176449296718,0.000747751411432,0.0,0.0,0.0,0.0,0.0,0.0,0.0,0.0,0.0,0.287278,-0.258294,9.799037,0.0,0.0,0.0,0.0,0.0,0.0,0.0,0.0,0.0
1659939461225678523,165220,1659939461225678523,imu,-0.011418,-0.014376,-0.006853,0.999807,0.0,0.0,0.0,0.0,0.0,0.0,0.0,0.0,0.0,-0.00122597162648,0.00208629677466,0.00137860066957,0.0,0.0,0.0,0.0,0.0,0.0,0.0,0.0,0.0,0.311331,-0.227366,9.794374,0.0,0.0,0.0,0.0,0.0,0.0,0.0,0.0,0.0
1659939461230664060,165221,1659939461230664060,imu,-0.011419,-0.01437,-0.006853,0.999808,0.0,0.0,0.0,0.0,0.0,0.0,0.0,0.0,0.0,0.00120705225739,0.00206329333512,0.00227386730938,0.0,0.0,0.0,0.0,0.0,0.0,0.0,0.0,0.0,0.24198,-0.258046,9.804097,0.0,0.0,0.0,0.0,0.0,0.0,0.0,0.0,0.0
1659939461235652391,165222,1659939461235652391,imu,-0.011418,-0.014362,-0.006854,0.999808,0.0,0.0,0.0,0.0,0.0,0.0,0.0,0.0,0.0,0.00149848733588,0.00115085265547,-0.000478255121631,0.0,0.0,0.0,0.0,0.0,0.0,0.0,0.0,0.0,0.256562,-0.229626,9.820921,0.0,0.0,0.0,0.0,0.0,0.0,0.0,0.0,0.0
1659939461240692473,165223,1659939461240692473,imu,-0.011413,-0.014358,-0.006854,0.999808,0.0,0.0,0.0,0.0,0.0,0.0,0.0,0.0,0.0,0.00150836589945,0.00301624310671,-0.000769236414524,0.0,0.0,0.0,0.0,0.0,0.0,0.0,0.0,0.0,0.2824,-0.258043,9.772859,0.0,0.0,0.0,0.0,0.0,0.0,0.0,0.0,0.0
1659939461249793072,165224,1659939461249793072,imu,-0.011413,-0.014352,-0.006854,0.999808,0.0,0.0,0.0,0.0,0.0,0.0,0.0,0.0,0.0,-0.00215169426174,-0.000391756603903,0.00136739565577,0.0,0.0,0.0,0.0,0.0,0.0,0.0,0.0,0.0,0.28036,-0.224822,9.79936,0.0,0.0,0.0,0.0,0.0,0.0,0.0,0.0,0.0
1659939461250595734,165225,1659939461250595734,imu,-0.01142,-0.014346,-0.006848,0.999808,0.0,0.0,0.0,0.0,0.0,0.0,0.0,0.0,0.0,-0.00244328641987,0.0014685898458,0.00199306128602,0.0,0.0,0.0,0.0,0.0,0.0,0.0,0.0,0.0,0.232528,-0.241212,9.797148,0.0,0.0,0.0,0.0,0.0,0.0,0.0,0.0,0.0
1659939461255769068,165226,1659939461255769068,imu,-0.011421,-0.01434,-0.006843,0.999808,0.0,0.0,0.0,0.0,0.0,0.0,0.0,0.0,0.0,0.00362492668334,0.000506494548929,0.000719529437427,0.0,0.0,0.0,0.0,0.0,0.0,0.0,0.0,0.0,0.232783,-0.215088,9.814045,0.0,0.0,0.0,0.0,0.0,0.0,0.0,0.0,0.0
1659939461260660951,165227,1659939461260660951,imu,-0.011413,-0.014334,-0.006846,0.999808,0.0,0.0,0.0,0.0,0.0,0.0,0.0,0.0,0.0,0.00211031250517,0.00271346338808,-0.00230009960803,0.0,0.0,0.0,0.0,0.0,0.0,0.0,0.0,0.0,0.277994,-0.215156,9.78754,0.0,0.0,0.0,0.0,0.0,0.0,0.0,0.0,0.0
1659939461265626305,165228,1659939461265626305,imu,-0.011416,-0.01433,-0.006849,0.999808,0.0,0.0,0.0,0.0,0.0,0.0,0.0,0.0,0.0,-0.00184781498567,0.000869348500418,-0.00136865229283,0.0,0.0,0.0,0.0,0.0,0.0,0.0,0.0,0.0,0.287421,-0.236785,9.796833,0.0,0.0,0.0,0.0,0.0,0.0,0.0,0.0,0.0
1659939461270717230,165229,1659939461270717230,imu,-0.011418,-0.014331,-0.006851,0.999808,0.0,0.0,0.0,0.0,0.0,0.0,0.0,0.0,0.0,-0.00245709197425,-0.000385071992868,0.000760247968876,0.0,0.0,0.0,0.0,0.0,0.0,0.0,0.0,0.0,0.292407,-0.200921,9.787568,0.0,0.0,0.0,0.0,0.0,0.0,0.0,0.0,0.0
1659939461275666590,165230,1659939461275666590,imu,-0.011424,-0.014327,-0.006851,0.999808,0.0,0.0,0.0,0.0,0.0,0.0,0.0,0.0,0.0,-0.00214752292482,0.0011748160261,-0.000449701535069,0.0,0.0,0.0,0.0,0.0,0.0,0.0,0.0,0.0,0.242136,-0.222032,9.780566,0.0,0.0,0.0,0.0,0.0,0.0,0.0,0.0,0.0
1659939461281080870,165231,1659939461281080870,imu,-0.011425,-0.014321,-0.006851,0.999808,0.0,0.0,0.0,0.0,0.0,0.0,0.0,0.0,0.0,0.00182364217553,0.00487494894692,-0.000453087473818,0.0,0.0,0.0,0.0,0.0,0.0,0.0,0.0,0.0,0.251814,-0.222373,9.813862,0.0,0.0,0.0,0.0,0.0,0.0,0.0,0.0,0.0
1659939461285585774,165232,1659939461285585774,imu,-0.01142,-0.014314,-0.006849,0.999808,0.0,0.0,0.0,0.0,0.0,0.0,0.0,0.0,0.0,0.00149274520265,-0.000411025038845,0.000729303281238,0.0,0.0,0.0,0.0,0.0,0.0,0.0,0.0,0.0,0.294426,-0.260747,9.801353,0.0,0.0,0.0,0.0,0.0,0.0,0.0,0.0,0.0
1659939461290691505,165233,1659939461290691505,imu,-0.011417,-0.014314,-0.006852,0.999808,0.0,0.0,0.0,0.0,0.0,0.0,0.0,0.0,0.0,0.0015049799607,0.00144731428222,0.00135259526371,0.0,0.0,0.0,0.0,0.0,0.0,0.0,0.0,0.0,0.306738,-0.210743,9.808841,0.0,0.0,0.0,0.0,0.0,0.0,0.0,0.0,0.0
1659939461295634790,165234,1659939461295634790,imu,-0.011417,-0.014309,-0.006853,0.999808,0.0,0.0,0.0,0.0,0.0,0.0,0.0,0.0,0.0,-0.00245292063734,0.00118150063714,-0.00105683176867,0.0,0.0,0.0,0.0,0.0,0.0,0.0,0.0,0.0,0.232543,-0.246088,9.809023,0.0,0.0,0.0,0.0,0.0,0.0,0.0,0.0,0.0
1659939461300579750,165235,1659939461300579750,imu,-0.011419,-0.014301,-0.006853,0.999809,0.0,0.0,0.0,0.0,0.0,0.0,0.0,0.0,0.0,0.00119977423441,0.00176918790287,0.000138230076758,0.0,0.0,0.0,0.0,0.0,0.0,0.0,0.0,0.0,0.275801,-0.203423,9.813866,0.0,0.0,0.0,0.0,0.0,0.0,0.0,0.0,0.0
1659939461305727873,165236,1659939461305727873,imu,-0.011419,-0.014295,-0.006855,0.999809,0.0,0.0,0.0,0.0,0.0,0.0,0.0,0.0,0.0,-0.000630098766555,0.00211743344852,-0.0031975653627,0.0,0.0,0.0,0.0,0.0,0.0,0.0,0.0,0.0,0.282662,-0.229512,9.787392,0.0,0.0,0.0,0.0,0.0,0.0,0.0,0.0,0.0
1659939461310748121,165237,1659939461310748121,imu,-0.01142,-0.014292,-0.006855,0.999809,0.0,0.0,0.0,0.0,0.0,0.0,0.0,0.0,0.0,-1.81165176357e-05,0.00146900872482,-0.00015929620083,0.0,0.0,0.0,0.0,0.0,0.0,0.0,0.0,0.0,0.303995,-0.241486,9.77524,0.0,0.0,0.0,0.0,0.0,0.0,0.0,0.0,0.0
1659939461315630924,165238,1659939461315630924,imu,-0.01142,-0.014296,-0.006854,0.999809,0.0,0.0,0.0,0.0,0.0,0.0,0.0,0.0,0.0,0.000264382475092,-0.00225906691732,-0.000189211144209,0.0,0.0,0.0,0.0,0.0,0.0,0.0,0.0,0.0,0.282655,-0.23192,9.789754,0.0,0.0,0.0,0.0,0.0,0.0,0.0,0.0,0.0
1659939461320730788,165239,1659939461320730788,imu,-0.011418,-0.014294,-0.006853,0.999809,0.0,0.0,0.0,0.0,0.0,0.0,0.0,0.0,0.0,0.000893957642871,0.00114547704138,0.000745534843282,0.0,0.0,0.0,0.0,0.0,0.0,0.0,0.0,0.0,0.263547,-0.234166,9.787476,0.0,0.0,0.0,0.0,0.0,0.0,0.0,0.0,0.0
1659939461325669673,165240,1659939461325669673,imu,-0.011416,-0.014286,-0.006854,0.999809,0.0,0.0,0.0,0.0,0.0,0.0,0.0,0.0,0.0,0.00241255117174,0.00145303896216,-0.000178337742969,0.0,0.0,0.0,0.0,0.0,0.0,0.0,0.0,0.0,0.261244,-0.219785,9.782845,0.0,0.0,0.0,0.0,0.0,0.0,0.0,0.0,0.0
1659939461330639916,165241,1659939461330639916,imu,-0.011412,-0.014288,-0.006854,0.999809,0.0,0.0,0.0,0.0,0.0,0.0,0.0,0.0,0.0,0.00179124886461,-0.00134454929586,0.00072003558291,0.0,0.0,0.0,0.0,0.0,0.0,0.0,0.0,0.0,0.304234,-0.227441,9.808718,0.0,0.0,0.0,0.0,0.0,0.0,0.0,0.0,0.0
1659939461335890143,165242,1659939461335890143,imu,-0.011413,-0.014292,-0.00685,0.999809,0.0,0.0,0.0,0.0,0.0,0.0,0.0,0.0,0.0,-0.00459084425128,-0.00129793155154,0.000160483024721,0.0,0.0,0.0,0.0,0.0,0.0,0.0,0.0,0.0,0.289908,-0.222475,9.796936,0.0,0.0,0.0,0.0,0.0,0.0,0.0,0.0,0.0
1659939461340698778,165243,1659939461340698778,imu,-0.011423,-0.014288,-0.006847,0.999809,0.0,0.0,0.0,0.0,0.0,0.0,0.0,0.0,0.0,-0.000920347021162,0.00239480117325,0.0013785308564,0.0,0.0,0.0,0.0,0.0,0.0,0.0,0.0,0.0,0.22798,-0.229524,9.830636,0.0,0.0,0.0,0.0,0.0,0.0,0.0,0.0,0.0
1659939461345650304,165244,1659939461345650304,imu,-0.011421,-0.014284,-0.006842,0.999809,0.0,0.0,0.0,0.0,0.0,0.0,0.0,0.0,0.0,0.00211479800135,0.00112109479173,0.00286935619686,0.0,0.0,0.0,0.0,0.0,0.0,0.0,0.0,0.0,0.261524,-0.208247,9.830598,0.0,0.0,0.0,0.0,0.0,0.0,0.0,0.0,0.0
1659939461350606020,165245,1659939461350606020,imu,-0.011421,-0.014281,-0.006841,0.999809,0.0,0.0,0.0,0.0,0.0,0.0,0.0,0.0,0.0,-0.00276093634373,-0.00038308231752,0.000762621616659,0.0,0.0,0.0,0.0,0.0,0.0,0.0,0.0,0.0,0.292247,-0.224817,9.789752,0.0,0.0,0.0,0.0,0.0,0.0,0.0,0.0,0.0
1659939461355720550,165246,1659939461355720550,imu,-0.011424,-0.014284,-0.00684,0.999809,0.0,0.0,0.0,0.0,0.0,0.0,0.0,0.0,0.0,0.00117903972289,-0.00227442581474,0.00102267567521,0.0,0.0,0.0,0.0,0.0,0.0,0.0,0.0,0.0,0.296976,-0.232031,9.792045,0.0,0.0,0.0,0.0,0.0,0.0,0.0,0.0,0.0
1659939461360693376,165247,1659939461360693376,imu,-0.011424,-0.014286,-0.006835,0.999809,0.0,0.0,0.0,0.0,0.0,0.0,0.0,0.0,0.0,-0.000326690729388,0.000221953520976,0.000748170290452,0.0,0.0,0.0,0.0,0.0,0.0,0.0,0.0,0.0,0.273263,-0.215206,9.797104,0.0,0.0,0.0,0.0,0.0,0.0,0.0,0.0,0.0
1659939461365628420,165248,1659939461365628420,imu,-0.011424,-0.014279,-0.006835,0.999809,0.0,0.0,0.0,0.0,0.0,0.0,0.0,0.0,0.0,0.0030125255554,0.000524541253394,-0.00110426981774,0.0,0.0,0.0,0.0,0.0,0.0,0.0,0.0,0.0,0.246983,-0.229485,9.811451,0.0,0.0,0.0,0.0,0.0,0.0,0.0,0.0,0.0
1659939461370725840,165249,1659939461370725840,imu,-0.011422,-0.014272,-0.006832,0.999809,0.0,0.0,0.0,0.0,0.0,0.0,0.0,0.0,0.0,-0.000595977579679,0.00612123620589,0.00109892911023,0.0,0.0,0.0,0.0,0.0,0.0,0.0,0.0,0.0,0.275392,-0.231654,9.763592,0.0,0.0,0.0,0.0,0.0,0.0,0.0,0.0,0.0
1659939461377789860,165250,1659939461377789860,imu,-0.011418,-0.014261,-0.00683,0.999809,0.0,0.0,0.0,0.0,0.0,0.0,0.0,0.0,0.0,0.00271419642636,0.000510142287065,0.00103143722805,0.0,0.0,0.0,0.0,0.0,0.0,0.0,0.0,0.0,0.306487,-0.222341,9.768236,0.0,0.0,0.0,0.0,0.0,0.0,0.0,0.0,0.0
1659939461380638599,165251,1659939461380638599,imu,-0.011416,-0.01426,-0.006829,0.999809,0.0,0.0,0.0,0.0,0.0,0.0,0.0,0.0,0.0,-0.00275498477098,0.00149400183971,-0.00105217173956,0.0,0.0,0.0,0.0,0.0,0.0,0.0,0.0,0.0,0.270724,-0.226989,9.780341,0.0,0.0,0.0,0.0,0.0,0.0,0.0,0.0,0.0
1659939461385661290,165252,1659939461385661290,imu,-0.011421,-0.014252,-0.006829,0.999809,0.0,0.0,0.0,0.0,0.0,0.0,0.0,0.0,0.0,-4.31096325243e-06,0.00332268801678,0.00107349966302,0.0,0.0,0.0,0.0,0.0,0.0,0.0,0.0,0.0,0.215983,-0.226881,9.80929,0.0,0.0,0.0,0.0,0.0,0.0,0.0,0.0,0.0
1659939461390713314,165253,1659939461390713314,imu,-0.011417,-0.014239,-0.006829,0.99981,0.0,0.0,0.0,0.0,0.0,0.0,0.0,0.0,0.0,0.0030265405493,0.00269340955497,-0.000478674000652,0.0,0.0,0.0,0.0,0.0,0.0,0.0,0.0,0.0,0.268704,-0.193807,9.811608,0.0,0.0,0.0,0.0,0.0,0.0,0.0,0.0,0.0
1659939461395655971,165254,1659939461395655971,imu,-0.011419,-0.01424,-0.006834,0.99981,0.0,0.0,0.0,0.0,0.0,0.0,0.0,0.0,0.0,-0.0018584789474,-0.00099368575633,-0.00138242294063,0.0,0.0,0.0,0.0,0.0,0.0,0.0,0.0,0.0,0.292133,-0.246386,9.799105,0.0,0.0,0.0,0.0,0.0,0.0,0.0,0.0,0.0
1659939461400600373,165255,1659939461400600373,imu,-0.01142,-0.01424,-0.006835,0.99981,0.0,0.0,0.0,0.0,0.0,0.0,0.0,0.0,0.0,0.000896732716382,0.00176883883702,0.000445373118524,0.0,0.0,0.0,0.0,0.0,0.0,0.0,0.0,0.0,0.301671,-0.234328,9.777698,0.0,0.0,0.0,0.0,0.0,0.0,0.0,0.0,0.0
1659939461405709455,165256,1659939461405709455,imu,-0.011418,-0.014234,-0.006835,0.99981,0.0,0.0,0.0,0.0,0.0,0.0,0.0,0.0,0.0,0.00028846801877,0.00209036339182,-0.000461849026663,0.0,0.0,0.0,0.0,0.0,0.0,0.0,0.0,0.0,0.235074,-0.236712,9.828147,0.0,0.0,0.0,0.0,0.0,0.0,0.0,0.0,0.0
1659939461410719087,165257,1659939461410719087,imu,-0.011417,-0.014228,-0.006834,0.99981,0.0,0.0,0.0,0.0,0.0,0.0,0.0,0.0,0.0,0.00180152885391,0.00115120172132,-0.000785398163397,0.0,0.0,0.0,0.0,0.0,0.0,0.0,0.0,0.0,0.247002,-0.219834,9.799618,0.0,0.0,0.0,0.0,0.0,0.0,0.0,0.0,0.0
1659939461415701621,165258,1659939461415701621,imu,-0.011416,-0.014219,-0.006836,0.99981,0.0,0.0,0.0,0.0,0.0,0.0,0.0,0.0,0.0,-0.000612139328552,0.00427459059081,-0.00104815748229,0.0,0.0,0.0,0.0,0.0,0.0,0.0,0.0,0.0,0.296782,-0.251012,9.777591,0.0,0.0,0.0,0.0,0.0,0.0,0.0,0.0,0.0
1659939461420583657,165259,1659939461420583657,imu,-0.011418,-0.014218,-0.006835,0.99981,0.0,0.0,0.0,0.0,0.0,0.0,0.0,0.0,0.0,-0.000651060170871,-0.00350446405837,0.00102777203662,0.0,0.0,0.0,0.0,0.0,0.0,0.0,0.0,0.0,0.304249,-0.195982,9.758938,0.0,0.0,0.0,0.0,0.0,0.0,0.0,0.0,0.0
1659939461425680308,165260,1659939461425680308,imu,-0.011419,-0.014221,-0.006832,0.99981,0.0,0.0,0.0,0.0,0.0,0.0,0.0,0.0,0.0,-0.00212879554195,0.0033296344272,0.00200445828604,0.0,0.0,0.0,0.0,0.0,0.0,0.0,0.0,0.0,0.256475,-0.229446,9.799476,0.0,0.0,0.0,0.0,0.0,0.0,0.0,0.0,0.0
1659939461430621707,165261,1659939461430621707,imu,-0.011424,-0.014211,-0.006831,0.99981,0.0,0.0,0.0,0.0,0.0,0.0,0.0,0.0,0.0,0.000881932324325,-0.000397673270067,-0.000484957185959,0.0,0.0,0.0,0.0,0.0,0.0,0.0,0.0,0.0,0.223142,-0.2124,9.785534,0.0,0.0,0.0,0.0,0.0,0.0,0.0,0.0,0.0
1659939461435639022,165262,1659939461435639022,imu,-0.01142,-0.014207,-0.006829,0.99981,0.0,0.0,0.0,0.0,0.0,0.0,0.0,0.0,0.0,0.0015010180633,0.000195913208536,0.00256247495449,0.0,0.0,0.0,0.0,0.0,0.0,0.0,0.0,0.0,0.270897,-0.215231,9.801885,0.0,0.0,0.0,0.0,0.0,0.0,0.0,0.0,0.0
1659939461440830724,165263,1659939461440830724,imu,-0.011424,-0.01421,-0.006828,0.99981,0.0,0.0,0.0,0.0,0.0,0.0,0.0,0.0,0.0,-0.00216392901979,-0.00225011337826,0.000744086220003,0.0,0.0,0.0,0.0,0.0,0.0,0.0,0.0,0.0,0.294536,-0.253704,9.815709,0.0,0.0,0.0,0.0,0.0,0.0,0.0,0.0,0.0
1659939461445656539,165264,1659939461445656539,imu,-0.011426,-0.014212,-0.00683,0.99981,0.0,0.0,0.0,0.0,0.0,0.0,0.0,0.0,0.0,-0.00123228971837,0.00084192937787,0.00167418963168,0.0,0.0,0.0,0.0,0.0,0.0,0.0,0.0,0.0,0.290004,-0.203294,9.787563,0.0,0.0,0.0,0.0,0.0,0.0,0.0,0.0,0.0
1659939461450589627,165265,1659939461450589627,imu,-0.011426,-0.014208,-0.006828,0.99981,0.0,0.0,0.0,0.0,0.0,0.0,0.0,0.0,0.0,0.00181257678807,0.00238151921764,0.000747576878507,0.0,0.0,0.0,0.0,0.0,0.0,0.0,0.0,0.0,0.256512,-0.236789,9.820861,0.0,0.0,0.0,0.0,0.0,0.0,0.0,0.0,0.0
1659939461455542131,165266,1659939461455542131,imu,-0.011428,-0.014201,-0.006828,0.99981,0.0,0.0,0.0,0.0,0.0,0.0,0.0,0.0,0.0,-0.00274056835136,0.00429326561381,-0.0016410283759,0.0,0.0,0.0,0.0,0.0,0.0,0.0,0.0,0.0,0.266193,-0.212913,9.813848,0.0,0.0,0.0,0.0,0.0,0.0,0.0,0.0,0.0
1659939461460716513,165267,1659939461460716513,imu,-0.011433,-0.014192,-0.006828,0.99981,0.0,0.0,0.0,0.0,0.0,0.0,0.0,0.0,0.0,-0.00032628930366,0.000852331540211,-0.00046626470967,0.0,0.0,0.0,0.0,0.0,0.0,0.0,0.0,0.0,0.29677,-0.258254,9.787061,0.0,0.0,0.0,0.0,0.0,0.0,0.0,0.0,0.0
1659939461465670413,165268,1659939461465670413,imu,-0.011438,-0.014195,-0.006829,0.99981,0.0,0.0,0.0,0.0,0.0,0.0,0.0,0.0,0.0,-0.00185751901631,-0.00194394772087,0.00104876834752,0.0,0.0,0.0,0.0,0.0,0.0,0.0,0.0,0.0,0.30178,-0.217595,9.775454,0.0,0.0,0.0,0.0,0.0,0.0,0.0,0.0,0.0
1659939461470562506,165269,1659939461470562506,imu,-0.01144,-0.014198,-0.006831,0.99981,0.0,0.0,0.0,0.0,0.0,0.0,0.0,0.0,0.0,0.00209549465982,-0.000716160951971,-0.000496773064995,0.0,0.0,0.0,0.0,0.0,0.0,0.0,0.0,0.0,0.239788,-0.22936,9.801967,0.0,0.0,0.0,0.0,0.0,0.0,0.0,0.0,0.0
1659939461475689537,165270,1659939461475689537,imu,-0.011436,-0.0142,-0.006829,0.99981,0.0,0.0,0.0,0.0,0.0,0.0,0.0,0.0,0.0,0.00208896712842,-0.00227573481168,0.000406015943891,0.0,0.0,0.0,0.0,0.0,0.0,0.0,0.0,0.0,0.242338,-0.200643,9.792658,0.0,0.0,0.0,0.0,0.0,0.0,0.0,0.0,0.0
1659939461480657335,165271,1659939461480657335,imu,-0.011431,-0.014196,-0.006827,0.99981,0.0,0.0,0.0,0.0,0.0,0.0,0.0,0.0,0.0,0.000907763197255,0.00299915633333,0.00197836561372,0.0,0.0,0.0,0.0,0.0,0.0,0.0,0.0,0.0,0.28743,-0.227115,9.782617,0.0,0.0,0.0,0.0,0.0,0.0,0.0,0.0,0.0
1659939461485879976,165272,1659939461485879976,imu,-0.011432,-0.014193,-0.006826,0.99981,0.0,0.0,0.0,0.0,0.0,0.0,0.0,0.0,0.0,0.00027309166806,0.000241379035551,-0.00230418367848,0.0,0.0,0.0,0.0,0.0,0.0,0.0,0.0,0.0,0.292074,-0.246266,9.784808,0.0,0.0,0.0,0.0,0.0,0.0,0.0,0.0,0.0
1659939461490746927,165273,1659939461490746927,imu,-0.011432,-0.014197,-0.006823,0.99981,0.0,0.0,0.0,0.0,0.0,0.0,0.0,0.0,0.0,0.000268117479691,-0.00258596708622,0.00194181841918,0.0,0.0,0.0,0.0,0.0,0.0,0.0,0.0,0.0,0.287551,-0.212829,9.787498,0.0,0.0,0.0,0.0,0.0,0.0,0.0,0.0,0.0
1659939461495659063,165274,1659939461495659063,imu,-0.011431,-0.014196,-0.006822,0.99981,0.0,0.0,0.0,0.0,0.0,0.0,0.0,0.0,0.0,0.00119820343808,0.00177386538526,-0.000471273804624,0.0,0.0,0.0,0.0,0.0,0.0,0.0,0.0,0.0,0.23733,-0.23404,9.792412,0.0,0.0,0.0,0.0,0.0,0.0,0.0,0.0,0.0
1659939461500602767,165275,1659939461500602767,imu,-0.011431,-0.014187,-0.006827,0.99981,0.0,0.0,0.0,0.0,0.0,0.0,0.0,0.0,0.0,0.00090544190935,0.00426930224318,-0.00166958196246,0.0,0.0,0.0,0.0,0.0,0.0,0.0,0.0,0.0,0.27807,-0.222579,9.818457,0.0,0.0,0.0,0.0,0.0,0.0,0.0,0.0,0.0
1659939461505722256,165276,1659939461505722256,imu,-0.011429,-0.014181,-0.006825,0.99981,0.0,0.0,0.0,0.0,0.0,0.0,0.0,0.0,0.0,-0.0006078283653,0.0036301626711,0.00199484152186,0.0,0.0,0.0,0.0,0.0,0.0,0.0,0.0,0.0,0.301812,-0.229773,9.803947,0.0,0.0,0.0,0.0,0.0,0.0,0.0,0.0,0.0
1659939461510704860,165277,1659939461510704860,imu,-0.011433,-0.014176,-0.006822,0.99981,0.0,0.0,0.0,0.0,0.0,0.0,0.0,0.0,0.0,-0.00124787550859,-0.00132224398802,0.000439072479924,0.0,0.0,0.0,0.0,0.0,0.0,0.0,0.0,0.0,0.287513,-0.23213,9.811169,0.0,0.0,0.0,0.0,0.0,0.0,0.0,0.0,0.0
1659939461515664417,165278,1659939461515664417,imu,-0.011436,-0.014176,-0.006821,0.99981,0.0,0.0,0.0,0.0,0.0,0.0,0.0,0.0,0.0,0.000591701523011,0.00114278923433,0.00135744727903,0.0,0.0,0.0,0.0,0.0,0.0,0.0,0.0,0.0,0.246783,-0.243611,9.787504,0.0,0.0,0.0,0.0,0.0,0.0,0.0,0.0,0.0
1659939461520601206,165279,1659939461520601206,imu,-0.011432,-0.014173,-0.006821,0.99981,0.0,0.0,0.0,0.0,0.0,0.0,0.0,0.0,0.0,0.00299814404237,-0.00101157538116,-0.00324907002893,0.0,0.0,0.0,0.0,0.0,0.0,0.0,0.0,0.0,0.251972,-0.21543,9.84013,0.0,0.0,0.0,0.0,0.0,0.0,0.0,0.0,0.0
1659939461525681934,165280,1659939461525681934,imu,-0.011426,-0.01417,-0.006827,0.999811,0.0,0.0,0.0,0.0,0.0,0.0,0.0,0.0,0.0,0.0018052813118,0.00208741378539,-0.00138802544753,0.0,0.0,0.0,0.0,0.0,0.0,0.0,0.0,0.0,0.270738,-0.212483,9.759016,0.0,0.0,0.0,0.0,0.0,0.0,0.0,0.0,0.0
1659939461530626127,165281,1659939461530626127,imu,-0.011427,-0.014171,-0.00683,0.99981,0.0,0.0,0.0,0.0,0.0,0.0,0.0,0.0,0.0,-0.00215284617904,0.000243298897728,-0.000456578132322,0.0,0.0,0.0,0.0,0.0,0.0,0.0,0.0,0.0,0.301659,-0.241571,9.787169,0.0,0.0,0.0,0.0,0.0,0.0,0.0,0.0,0.0
1659939461535589665,165282,1659939461535589665,imu,-0.01143,-0.014171,-0.00683,0.99981,0.0,0.0,0.0,0.0,0.0,0.0,0.0,0.0,0.0,-0.00154616973105,-7.35307213865e-05,-0.000158877321809,0.0,0.0,0.0,0.0,0.0,0.0,0.0,0.0,0.0,0.268494,-0.207913,9.785279,0.0,0.0,0.0,0.0,0.0,0.0,0.0,0.0,0.0
1659939461540733388,165283,1659939461540733388,imu,-0.011436,-0.014164,-0.006832,0.99981,0.0,0.0,0.0,0.0,0.0,0.0,0.0,0.0,0.0,-0.00183104237156,0.00366156114434,-0.00104323565379,0.0,0.0,0.0,0.0,0.0,0.0,0.0,0.0,0.0,0.220537,-0.243424,9.785293,0.0,0.0,0.0,0.0,0.0,0.0,0.0,0.0,0.0
1659939461545688755,165284,1659939461545688755,imu,-0.011435,-0.014157,-0.006831,0.999811,0.0,0.0,0.0,0.0,0.0,0.0,0.0,0.0,0.0,-0.00183381744507,0.00303821680199,-0.000743056475744,0.0,0.0,0.0,0.0,0.0,0.0,0.0,0.0,0.0,0.258981,-0.215175,9.804344,0.0,0.0,0.0,0.0,0.0,0.0,0.0,0.0,0.0
1659939461550662769,165285,1659939461550662769,imu,-0.011443,-0.014152,-0.00683,0.999811,0.0,0.0,0.0,0.0,0.0,0.0,0.0,0.0,0.0,-0.000931604394837,0.000849294667313,0.00045275586126,0.0,0.0,0.0,0.0,0.0,0.0,0.0,0.0,0.0,0.301584,-0.26322,9.806054,0.0,0.0,0.0,0.0,0.0,0.0,0.0,0.0,0.0
1659939461555726526,165286,1659939461555726526,imu,-0.011445,-0.01415,-0.006826,0.999811,0.0,0.0,0.0,0.0,0.0,0.0,0.0,0.0,0.0,-0.00307067992608,-0.00099506456644,-0.000153850773563,0.0,0.0,0.0,0.0,0.0,0.0,0.0,0.0,0.0,0.26138,-0.200684,9.783004,0.0,0.0,0.0,0.0,0.0,0.0,0.0,0.0,0.0
1659939461560750405,165287,1659939461560750405,imu,-0.011451,-0.014151,-0.006827,0.999811,0.0,0.0,0.0,0.0,0.0,0.0,0.0,0.0,0.0,-0.00124213337535,0.000239651159591,-0.000768485922946,0.0,0.0,0.0,0.0,0.0,0.0,0.0,0.0,0.0,0.242155,-0.248716,9.830385,0.0,0.0,0.0,0.0,0.0,0.0,0.0,0.0,0.0
1659939461566142755,165288,1659939461566142755,imu,-0.011455,-0.014148,-0.006827,0.999811,0.0,0.0,0.0,0.0,0.0,0.0,0.0,0.0,0.0,-0.00184053696269,0.00116345393267,0.000766950033204,0.0,0.0,0.0,0.0,0.0,0.0,0.0,0.0,0.0,0.258959,-0.212707,9.794833,0.0,0.0,0.0,0.0,0.0,0.0,0.0,0.0,0.0
1659939461573805366,165289,1659939461573805366,imu,-0.011456,-0.014143,-0.006824,0.999811,0.0,0.0,0.0,0.0,0.0,0.0,0.0,0.0,0.0,-0.000624618432704,0.000837932573882,0.00166942488283,0.0,0.0,0.0,0.0,0.0,0.0,0.0,0.0,0.0,0.261194,-0.236639,9.799385,0.0,0.0,0.0,0.0,0.0,0.0,0.0,0.0,0.0
1659939461575682154,165290,1659939461575682154,imu,-0.011458,-0.014144,-0.006824,0.999811,0.0,0.0,0.0,0.0,0.0,0.0,0.0,0.0,0.0,-0.000640378755849,-0.000378317568662,-0.0016921141631,0.0,0.0,0.0,0.0,0.0,0.0,0.0,0.0,0.0,0.296874,-0.246356,9.791925,0.0,0.0,0.0,0.0,0.0,0.0,0.0,0.0,0.0
1659939461580634029,165291,1659939461580634029,imu,-0.011463,-0.014145,-0.006826,0.99981,0.0,0.0,0.0,0.0,0.0,0.0,0.0,0.0,0.0,-0.000936142250892,-8.45437489666e-05,0.000750631204698,0.0,0.0,0.0,0.0,0.0,0.0,0.0,0.0,0.0,0.275558,-0.231994,9.804098,0.0,0.0,0.0,0.0,0.0,0.0,0.0,0.0,0.0
1659939461585623547,165292,1659939461585623547,imu,-0.011466,-0.014141,-0.006824,0.99981,0.0,0.0,0.0,0.0,0.0,0.0,0.0,0.0,0.0,-0.000624408993193,0.0011531215835,0.00106220738276,0.0,0.0,0.0,0.0,0.0,0.0,0.0,0.0,0.0,0.239754,-0.234135,9.801928,0.0,0.0,0.0,0.0,0.0,0.0,0.0,0.0,0.0
1659939461590833896,165293,1659939461590833896,imu,-0.01146,-0.014139,-0.006822,0.999811,0.0,0.0,0.0,0.0,0.0,0.0,0.0,0.0,0.0,0.00484262544917,0.000491484717362,0.00162430812166,0.0,0.0,0.0,0.0,0.0,0.0,0.0,0.0,0.0,0.270729,-0.222153,9.773232,0.0,0.0,0.0,0.0,0.0,0.0,0.0,0.0,0.0
1659939461596440373,165294,1659939461596440373,imu,-0.011452,-0.014139,-0.00682,0.999811,0.0,0.0,0.0,0.0,0.0,0.0,0.0,0.0,0.0,0.0011780797918,-0.0013241638502,-0.00140851561294,0.0,0.0,0.0,0.0,0.0,0.0,0.0,0.0,0.0,0.301839,-0.227406,9.80635,0.0,0.0,0.0,0.0,0.0,0.0,0.0,0.0,0.0
1659939461600626183,165295,1659939461600626183,imu,-0.011451,-0.014144,-0.006823,0.999811,0.0,0.0,0.0,0.0,0.0,0.0,0.0,0.0,0.0,-0.00126206503541,-0.00254318906625,-0.00231294523133,0.0,0.0,0.0,0.0,0.0,0.0,0.0,0.0,0.0,0.261297,-0.205359,9.77105,0.0,0.0,0.0,0.0,0.0,0.0,0.0,0.0,0.0
1659939461605557804,165296,1659939461605557804,imu,-0.011455,-0.014146,-0.006826,0.999811,0.0,0.0,0.0,0.0,0.0,0.0,0.0,0.0,0.0,-0.000636451765032,-0.000390028727943,-0.00016830209977,0.0,0.0,0.0,0.0,0.0,0.0,0.0,0.0,0.0,0.237413,-0.239055,9.820965,0.0,0.0,0.0,0.0,0.0,0.0,0.0,0.0,0.0
1659939461610782401,165297,1659939461610782401,imu,-0.011454,-0.014141,-0.006825,0.999811,0.0,0.0,0.0,0.0,0.0,0.0,0.0,0.0,0.0,0.000899699776111,0.00270738964228,-0.000462006106295,0.0,0.0,0.0,0.0,0.0,0.0,0.0,0.0,0.0,0.256733,-0.21544,9.837716,0.0,0.0,0.0,0.0,0.0,0.0,0.0,0.0,0.0
1659939461615647955,165298,1659939461615647955,imu,-0.011458,-0.014137,-0.006824,0.999811,0.0,0.0,0.0,0.0,0.0,0.0,0.0,0.0,0.0,-0.00306022540386,0.000552763227399,0.000467119921004,0.0,0.0,0.0,0.0,0.0,0.0,0.0,0.0,0.0,0.299177,-0.251047,9.779958,0.0,0.0,0.0,0.0,0.0,0.0,0.0,0.0,0.0
1659939461621794498,165299,1659939461621794498,imu,-0.01146,-0.014142,-0.006821,0.999811,0.0,0.0,0.0,0.0,0.0,0.0,0.0,0.0,0.0,-4.29874594766e-05,-0.00287808284312,-0.000191427712359,0.0,0.0,0.0,0.0,0.0,0.0,0.0,0.0,0.0,0.301841,-0.220143,9.794496,0.0,0.0,0.0,0.0,0.0,0.0,0.0,0.0,0.0
1659939461625723439,165300,1659939461625723439,imu,-0.011459,-0.014143,-0.00682,0.999811,0.0,0.0,0.0,0.0,0.0,0.0,0.0,0.0,0.0,0.000891985420817,0.000519776504536,0.00135048341532,0.0,0.0,0.0,0.0,0.0,0.0,0.0,0.0,0.0,0.266035,-0.229546,9.80418,0.0,0.0,0.0,0.0,0.0,0.0,0.0,0.0,0.0
1659939461630652616,165301,1659939461630652616,imu,-0.011457,-0.01414,-0.00682,0.999811,0.0,0.0,0.0,0.0,0.0,0.0,0.0,0.0,0.0,-0.000628545423521,0.000849643733163,0.000145612819494,0.0,0.0,0.0,0.0,0.0,0.0,0.0,0.0,0.0,0.242383,-0.215269,9.828279,0.0,0.0,0.0,0.0,0.0,0.0,0.0,0.0,0.0
1659939461635706107,165302,1659939461635706107,imu,-0.011457,-0.014134,-0.006814,0.999811,0.0,0.0,0.0,0.0,0.0,0.0,0.0,0.0,0.0,-0.00153000798218,0.00177309744039,0.0019882092707,0.0,0.0,0.0,0.0,0.0,0.0,0.0,0.0,0.0,0.287512,-0.212749,9.777968,0.0,0.0,0.0,0.0,0.0,0.0,0.0,0.0,0.0
1659939461640886635,165303,1659939461640886635,imu,-0.011462,-0.014136,-0.006812,0.999811,0.0,0.0,0.0,0.0,0.0,0.0,0.0,0.0,0.0,-0.000331647464464,-0.00134228036783,0.0022605155406,0.0,0.0,0.0,0.0,0.0,0.0,0.0,0.0,0.0,0.294721,-0.208059,9.782727,0.0,0.0,0.0,0.0,0.0,0.0,0.0,0.0,0.0
1659939461645662794,165304,1659939461645662794,imu,-0.011462,-0.014139,-0.006813,0.999811,0.0,0.0,0.0,0.0,0.0,0.0,0.0,0.0,0.0,-0.00155779362387,-0.000986303013595,-0.00260385671105,0.0,0.0,0.0,0.0,0.0,0.0,0.0,0.0,0.0,0.266063,-0.210225,9.778128,0.0,0.0,0.0,0.0,0.0,0.0,0.0,0.0,0.0
1659939461650732558,165305,1659939461650732558,imu,-0.011459,-0.014138,-0.006817,0.999811,0.0,0.0,0.0,0.0,0.0,0.0,0.0,0.0,0.0,0.00453330074584,0.00177299272064,-0.00324030847608,0.0,0.0,0.0,0.0,0.0,0.0,0.0,0.0,0.0,0.232847,-0.210373,9.821234,0.0,0.0,0.0,0.0,0.0,0.0,0.0,0.0,0.0
1659939461655553274,165306,1659939461655553274,imu,-0.01145,-0.014131,-0.006821,0.999811,0.0,0.0,0.0,0.0,0.0,0.0,0.0,0.0,0.0,0.00392562946017,0.00177697207133,-0.00323556118052,0.0,0.0,0.0,0.0,0.0,0.0,0.0,0.0,0.0,0.266149,-0.227359,9.828026,0.0,0.0,0.0,0.0,0.0,0.0,0.0,0.0,0.0
1659939461660686591,165307,1659939461660686591,imu,-0.011441,-0.014129,-0.006825,0.999811,0.0,0.0,0.0,0.0,0.0,0.0,0.0,0.0,0.0,0.0020964720442,-0.000403310683551,-0.000799238624366,0.0,0.0,0.0,0.0,0.0,0.0,0.0,0.0,0.0,0.29461,-0.232056,9.796825,0.0,0.0,0.0,0.0,0.0,0.0,0.0,0.0,0.0
1659939461665635184,165308,1659939461665635184,imu,-0.011438,-0.014136,-0.006827,0.999811,0.0,0.0,0.0,0.0,0.0,0.0,0.0,0.0,0.0,0.000556969470896,-0.0038065630986,-0.00111735978713,0.0,0.0,0.0,0.0,0.0,0.0,0.0,0.0,0.0,0.294797,-0.205792,9.797043,0.0,0.0,0.0,0.0,0.0,0.0,0.0,0.0,0.0
1659939461670641463,165309,1659939461670641463,imu,-0.011435,-0.014142,-0.00683,0.999811,0.0,0.0,0.0,0.0,0.0,0.0,0.0,0.0,0.0,0.00177684989829,-0.00288068338371,-0.00142474717499,0.0,0.0,0.0,0.0,0.0,0.0,0.0,0.0,0.0,0.261337,-0.224821,9.81378,0.0,0.0,0.0,0.0,0.0,0.0,0.0,0.0,0.0
1659939461675704033,165310,1659939461675704033,imu,-0.011429,-0.014148,-0.006834,0.999811,0.0,0.0,0.0,0.0,0.0,0.0,0.0,0.0,0.0,0.00207655783744,-0.00318616836269,-0.00234371538604,0.0,0.0,0.0,0.0,0.0,0.0,0.0,0.0,0.0,0.239951,-0.207891,9.804528,0.0,0.0,0.0,0.0,0.0,0.0,0.0,0.0,0.0
1659939461680645432,165311,1659939461680645432,imu,-0.011424,-0.014147,-0.006833,0.999811,0.0,0.0,0.0,0.0,0.0,0.0,0.0,0.0,0.0,0.00150279829914,0.000506424735759,0.00256476133581,0.0,0.0,0.0,0.0,0.0,0.0,0.0,0.0,0.0,0.261237,-0.222193,9.785207,0.0,0.0,0.0,0.0,0.0,0.0,0.0,0.0,0.0
1659939461685585225,165312,1659939461685585225,imu,-0.011425,-0.014147,-0.006831,0.999811,0.0,0.0,0.0,0.0,0.0,0.0,0.0,0.0,0.0,-0.0033683632833,0.00119919827575,-0.00257350543536,0.0,0.0,0.0,0.0,0.0,0.0,0.0,0.0,0.0,0.287384,-0.229442,9.775448,0.0,0.0,0.0,0.0,0.0,0.0,0.0,0.0,0.0
1659939461690765823,165313,1659939461690765823,imu,-0.011432,-0.014146,-0.006833,0.999811,0.0,0.0,0.0,0.0,0.0,0.0,0.0,0.0,0.0,-0.000347983746263,-0.00224100275956,-0.00201302785267,0.0,0.0,0.0,0.0,0.0,0.0,0.0,0.0,0.0,0.256506,-0.222243,9.79477,0.0,0.0,0.0,0.0,0.0,0.0,0.0,0.0,0.0
1659939461695699400,165314,1659939461695699400,imu,-0.011429,-0.014147,-0.006835,0.999811,0.0,0.0,0.0,0.0,0.0,0.0,0.0,0.0,0.0,0.00362492668334,0.000506494548929,0.000719529437427,0.0,0.0,0.0,0.0,0.0,0.0,0.0,0.0,0.0,0.23024,-0.222016,9.78779,0.0,0.0,0.0,0.0,0.0,0.0,0.0,0.0,0.0
1659939461700618311,165315,1659939461700618311,imu,-0.011418,-0.014144,-0.006836,0.999811,0.0,0.0,0.0,0.0,0.0,0.0,0.0,0.0,0.0,0.00484285234197,0.00206978595994,-0.00171658367921,0.0,0.0,0.0,0.0,0.0,0.0,0.0,0.0,0.0,0.263795,-0.21045,9.806737,0.0,0.0,0.0,0.0,0.0,0.0,0.0,0.0,0.0
1659939461705687864,165316,1659939461705687864,imu,-0.011408,-0.014144,-0.006839,0.999811,0.0,0.0,0.0,0.0,0.0,0.0,0.0,0.0,0.0,0.002695678483,-0.00132945219783,-0.00202994009312,0.0,0.0,0.0,0.0,0.0,0.0,0.0,0.0,0.0,0.294635,-0.246641,9.827682,0.0,0.0,0.0,0.0,0.0,0.0,0.0,0.0,0.0
1659939461710680316,165317,1659939461710680316,imu,-0.011403,-0.014146,-0.006844,0.999811,0.0,0.0,0.0,0.0,0.0,0.0,0.0,0.0,0.0,0.00179243568851,-0.000716510017821,-0.000189630023229,0.0,0.0,0.0,0.0,0.0,0.0,0.0,0.0,0.0,0.29221,-0.217474,9.768369,0.0,0.0,0.0,0.0,0.0,0.0,0.0,0.0,0.0
1659939461715643365,165318,1659939461715643365,imu,-0.0114,-0.014144,-0.006843,0.999811,0.0,0.0,0.0,0.0,0.0,0.0,0.0,0.0,0.0,0.000583254129431,0.001483756757,-0.00260214628838,0.0,0.0,0.0,0.0,0.0,0.0,0.0,0.0,0.0,0.25178,-0.236838,9.830421,0.0,0.0,0.0,0.0,0.0,0.0,0.0,0.0,0.0
1659939461720609766,165319,1659939461720609766,imu,-0.011394,-0.014139,-0.006844,0.999811,0.0,0.0,0.0,0.0,0.0,0.0,0.0,0.0,0.0,0.00180704409434,0.00113479562635,0.00134793523461,0.0,0.0,0.0,0.0,0.0,0.0,0.0,0.0,0.0,0.239975,-0.203096,9.802185,0.0,0.0,0.0,0.0,0.0,0.0,0.0,0.0,0.0
1659939461725709141,165320,1659939461725709141,imu,-0.011386,-0.014133,-0.006845,0.999811,0.0,0.0,0.0,0.0,0.0,0.0,0.0,0.0,0.0,0.00241237663881,0.00240094473221,-0.00230477709043,0.0,0.0,0.0,0.0,0.0,0.0,0.0,0.0,0.0,0.280243,-0.234272,9.787367,0.0,0.0,0.0,0.0,0.0,0.0,0.0,0.0,0.0
1659939461730638598,165321,1659939461730638598,imu,-0.011385,-0.014133,-0.006849,0.999811,0.0,0.0,0.0,0.0,0.0,0.0,0.0,0.0,0.0,-0.00126164615639,-0.00191279359372,-0.00352739768474,0.0,0.0,0.0,0.0,0.0,0.0,0.0,0.0,0.0,0.292458,-0.203449,9.804228,0.0,0.0,0.0,0.0,0.0,0.0,0.0,0.0,0.0
1659939461735834351,165322,1659939461735834351,imu,-0.011388,-0.014135,-0.006852,0.999811,0.0,0.0,0.0,0.0,0.0,0.0,0.0,0.0,0.0,0.00269742381225,-0.00228207035686,0.000706020589017,0.0,0.0,0.0,0.0,0.0,0.0,0.0,0.0,0.0,0.246764,-0.253261,9.799339,0.0,0.0,0.0,0.0,0.0,0.0,0.0,0.0,0.0
1659939461740546119,165323,1659939461740546119,imu,-0.011384,-0.014139,-0.006851,0.999811,0.0,0.0,0.0,0.0,0.0,0.0,0.0,0.0,0.0,0.00027129397893,-0.00133222727134,0.000427186787718,0.0,0.0,0.0,0.0,0.0,0.0,0.0,0.0,0.0,0.247196,-0.191163,9.797471,0.0,0.0,0.0,0.0,0.0,0.0,0.0,0.0,0.0
1659939461745678109,165324,1659939461745678109,imu,-0.011381,-0.014139,-0.006852,0.999811,0.0,0.0,0.0,0.0,0.0,0.0,0.0,0.0,0.0,-0.000626573201466,0.00147534427,-0.000459300845955,0.0,0.0,0.0,0.0,0.0,0.0,0.0,0.0,0.0,0.273161,-0.229532,9.796985,0.0,0.0,0.0,0.0,0.0,0.0,0.0,0.0,0.0
1659939461750668186,165325,1659939461750668186,imu,-0.011386,-0.014135,-0.006855,0.999811,0.0,0.0,0.0,0.0,0.0,0.0,0.0,0.0,0.0,-0.00245607968328,0.00119087305522,-0.00227589189131,0.0,0.0,0.0,0.0,0.0,0.0,0.0,0.0,0.0,0.292078,-0.258384,9.806155,0.0,0.0,0.0,0.0,0.0,0.0,0.0,0.0,0.0
1659939461755577878,165326,1659939461755577878,imu,-0.011387,-0.014136,-0.006857,0.999811,0.0,0.0,0.0,0.0,0.0,0.0,0.0,0.0,0.0,-2.28638132011e-05,0.000219946392336,0.00074579664267,0.0,0.0,0.0,0.0,0.0,0.0,0.0,0.0,0.0,0.306734,-0.198625,9.787494,0.0,0.0,0.0,0.0,0.0,0.0,0.0,0.0,0.0
1659939461760691640,165327,1659939461760691640,imu,-0.011388,-0.014131,-0.006855,0.999811,0.0,0.0,0.0,0.0,0.0,0.0,0.0,0.0,0.0,-1.31946891451e-05,0.00177014783396,0.00106203284984,0.0,0.0,0.0,0.0,0.0,0.0,0.0,0.0,0.0,0.239665,-0.250908,9.808937,0.0,0.0,0.0,0.0,0.0,0.0,0.0,0.0,0.0
1659939461765633877,165328,1659939461765633877,imu,-0.011389,-0.014129,-0.006858,0.999811,0.0,0.0,0.0,0.0,0.0,0.0,0.0,0.0,0.0,-0.00124609527275,-0.0010117324608,0.000441376314537,0.0,0.0,0.0,0.0,0.0,0.0,0.0,0.0,0.0,0.268612,-0.217843,9.830472,0.0,0.0,0.0,0.0,0.0,0.0,0.0,0.0,0.0
1659939461770650981,165329,1659939461770650981,imu,-0.011391,-0.014125,-0.006857,0.999811,0.0,0.0,0.0,0.0,0.0,0.0,0.0,0.0,0.0,-0.00304422073462,0.00334733206581,0.000487784619347,0.0,0.0,0.0,0.0,0.0,0.0,0.0,0.0,0.0,0.285014,-0.234302,9.787336,0.0,0.0,0.0,0.0,0.0,0.0,0.0,0.0,0.0
1659939461775809580,165330,1659939461775809580,imu,-0.011396,-0.014121,-0.006854,0.999811,0.0,0.0,0.0,0.0,0.0,0.0,0.0,0.0,0.0,-0.00213925006417,0.00178177172678,0.00138345268489,0.0,0.0,0.0,0.0,0.0,0.0,0.0,0.0,0.0,0.287787,-0.196356,9.816231,0.0,0.0,0.0,0.0,0.0,0.0,0.0,0.0,0.0
1659939461780652366,165331,1659939461780652366,imu,-0.011399,-0.014113,-0.006855,0.999811,0.0,0.0,0.0,0.0,0.0,0.0,0.0,0.0,0.0,-0.000311698351114,0.00270365463768,0.00107130054817,0.0,0.0,0.0,0.0,0.0,0.0,0.0,0.0,0.0,0.22537,-0.238739,9.792449,0.0,0.0,0.0,0.0,0.0,0.0,0.0,0.0,0.0
1659939461785592019,165332,1659939461785592019,imu,-0.011399,-0.014104,-0.006857,0.999812,0.0,0.0,0.0,0.0,0.0,0.0,0.0,0.0,0.0,0.000598054521488,0.00365028631738,-0.00167179853061,0.0,0.0,0.0,0.0,0.0,0.0,0.0,0.0,0.0,0.254312,-0.200819,9.804494,0.0,0.0,0.0,0.0,0.0,0.0,0.0,0.0,0.0
1659939461790545919,165333,1659939461790545919,imu,-0.011394,-0.014096,-0.006859,0.999812,0.0,0.0,0.0,0.0,0.0,0.0,0.0,0.0,0.0,0.00119741803992,0.00177620412646,-0.000776043198607,0.0,0.0,0.0,0.0,0.0,0.0,0.0,0.0,0.0,0.263352,-0.243456,9.756421,0.0,0.0,0.0,0.0,0.0,0.0,0.0,0.0,0.0
1659939461795693064,165334,1659939461795693064,imu,-0.011389,-0.014096,-0.006862,0.999812,0.0,0.0,0.0,0.0,0.0,0.0,0.0,0.0,0.0,0.00270513816754,-9.44572191179e-05,-0.00110646893259,0.0,0.0,0.0,0.0,0.0,0.0,0.0,0.0,0.0,0.301639,-0.231841,9.765804,0.0,0.0,0.0,0.0,0.0,0.0,0.0,0.0,0.0
1659939461800655694,165335,1659939461800655694,imu,-0.011384,-0.014099,-0.006864,0.999812,0.0,0.0,0.0,0.0,0.0,0.0,0.0,0.0,0.0,0.000877795893998,-0.000701151120404,-0.00140155174923,0.0,0.0,0.0,0.0,0.0,0.0,0.0,0.0,0.0,0.268449,-0.219931,9.794711,0.0,0.0,0.0,0.0,0.0,0.0,0.0,0.0,0.0
1659939461805566643,165336,1659939461805566643,imu,-0.011381,-0.014101,-0.006866,0.999812,0.0,0.0,0.0,0.0,0.0,0.0,0.0,0.0,0.0,0.00148208124092,-0.00227407674889,0.00071553263344,0.0,0.0,0.0,0.0,0.0,0.0,0.0,0.0,0.0,0.225356,-0.243554,9.797175,0.0,0.0,0.0,0.0,0.0,0.0,0.0,0.0,0.0
1659939461810690811,165337,1659939461810690811,imu,-0.011381,-0.014095,-0.006866,0.999812,0.0,0.0,0.0,0.0,0.0,0.0,0.0,0.0,0.0,-0.00182098927507,0.00457902837224,0.00079220494748,0.0,0.0,0.0,0.0,0.0,0.0,0.0,0.0,0.0,0.259126,-0.196094,9.806886,0.0,0.0,0.0,0.0,0.0,0.0,0.0,0.0,0.0
1659939461815660565,165338,1659939461815660565,imu,-0.011384,-0.014084,-0.006866,0.999812,0.0,0.0,0.0,0.0,0.0,0.0,0.0,0.0,0.0,0.000600777235121,0.00301051842677,0.000761696592155,0.0,0.0,0.0,0.0,0.0,0.0,0.0,0.0,0.0,0.292145,-0.239143,9.789633,0.0,0.0,0.0,0.0,0.0,0.0,0.0,0.0,0.0
1659939461820595609,165339,1659939461820595609,imu,-0.011382,-0.014082,-0.006867,0.999812,0.0,0.0,0.0,0.0,0.0,0.0,0.0,0.0,0.0,-0.00125023170308,-0.00131521031113,-0.00047520079544,0.0,0.0,0.0,0.0,0.0,0.0,0.0,0.0,0.0,0.266112,-0.210325,9.79004,0.0,0.0,0.0,0.0,0.0,0.0,0.0,0.0,0.0
1659939461829783298,165340,1659939461829783298,imu,-0.011386,-0.014081,-0.006865,0.999812,0.0,0.0,0.0,0.0,0.0,0.0,0.0,0.0,0.0,-0.000617480036063,0.00334307346244,-0.00105505153283,0.0,0.0,0.0,0.0,0.0,0.0,0.0,0.0,0.0,0.234926,-0.243675,9.804261,0.0,0.0,0.0,0.0,0.0,0.0,0.0,0.0,0.0
1659939461830669836,165341,1659939461830669836,imu,-0.011385,-0.014071,-0.006865,0.999812,0.0,0.0,0.0,0.0,0.0,0.0,0.0,0.0,0.0,-0.000616520104974,0.0023928114979,0.00137613975532,0.0,0.0,0.0,0.0,0.0,0.0,0.0,0.0,0.0,0.251957,-0.210554,9.828257,0.0,0.0,0.0,0.0,0.0,0.0,0.0,0.0,0.0
1659939461835617031,165342,1659939461835617031,imu,-0.011387,-0.014064,-0.006862,0.999812,0.0,0.0,0.0,0.0,0.0,0.0,0.0,0.0,0.0,-0.00154459893472,-7.82082037819e-05,0.000450644012865,0.0,0.0,0.0,0.0,0.0,0.0,0.0,0.0,0.0,0.263586,-0.224556,9.780408,0.0,0.0,0.0,0.0,0.0,0.0,0.0,0.0,0.0
1659939461840577985,165343,1659939461840577985,imu,-0.011394,-0.014069,-0.00686,0.999812,0.0,0.0,0.0,0.0,0.0,0.0,0.0,0.0,0.0,-0.00277139086595,-0.00193092756465,0.000141616015507,0.0,0.0,0.0,0.0,0.0,0.0,0.0,0.0,0.0,0.292015,-0.236455,9.753914,0.0,0.0,0.0,0.0,0.0,0.0,0.0,0.0,0.0
1659939461845697683,165344,1659939461845697683,imu,-0.011402,-0.014074,-0.006858,0.999812,0.0,0.0,0.0,0.0,0.0,0.0,0.0,0.0,0.0,-0.00367992200807,-0.000986390280057,-0.000758624812672,0.0,0.0,0.0,0.0,0.0,0.0,0.0,0.0,0.0,0.254211,-0.215145,9.804376,0.0,0.0,0.0,0.0,0.0,0.0,0.0,0.0,0.0
1659939461850617851,165345,1659939461850617851,imu,-0.011403,-0.014068,-0.006858,0.999812,0.0,0.0,0.0,0.0,0.0,0.0,0.0,0.0,0.0,0.000898704938437,0.00239453937386,-0.000159540546925,0.0,0.0,0.0,0.0,0.0,0.0,0.0,0.0,0.0,0.237435,-0.231832,9.813876,0.0,0.0,0.0,0.0,0.0,0.0,0.0,0.0,0.0
1659939461855619940,165346,1659939461855619940,imu,-0.011401,-0.014059,-0.006855,0.999812,0.0,0.0,0.0,0.0,0.0,0.0,0.0,0.0,0.0,0.0003042632485,0.00456974322062,0.00016601571845,0.0,0.0,0.0,0.0,0.0,0.0,0.0,0.0,0.0,0.268383,-0.222218,9.782779,0.0,0.0,0.0,0.0,0.0,0.0,0.0,0.0,0.0
1659939461860763454,165347,1659939461860763454,imu,-0.011402,-0.01405,-0.006856,0.999812,0.0,0.0,0.0,0.0,0.0,0.0,0.0,0.0,0.0,0.000279584292877,0.000537823209002,-0.000473315839848,0.0,0.0,0.0,0.0,0.0,0.0,0.0,0.0,0.0,0.282738,-0.227245,9.801708,0.0,0.0,0.0,0.0,0.0,0.0,0.0,0.0,0.0
1659939461865719798,165348,1659939461865719798,imu,-0.011402,-0.014049,-0.006856,0.999812,0.0,0.0,0.0,0.0,0.0,0.0,0.0,0.0,0.0,-1.89019157991e-05,0.00147134746602,-0.00046404814152,0.0,0.0,0.0,0.0,0.0,0.0,0.0,0.0,0.0,0.277892,-0.219791,9.770823,0.0,0.0,0.0,0.0,0.0,0.0,0.0,0.0,0.0
1659939461870616361,165349,1659939461870616361,imu,-0.011404,-0.014041,-0.006855,0.999812,0.0,0.0,0.0,0.0,0.0,0.0,0.0,0.0,0.0,0.000295170083097,0.00270201402818,0.000761783858618,0.0,0.0,0.0,0.0,0.0,0.0,0.0,0.0,0.0,0.237435,-0.231832,9.813876,0.0,0.0,0.0,0.0,0.0,0.0,0.0,0.0,0.0
1659939461875749957,165350,1659939461875749957,imu,-0.011403,-0.014032,-0.006855,0.999813,0.0,0.0,0.0,0.0,0.0,0.0,0.0,0.0,0.0,0.000894359068599,0.0017758725139,-0.000468900156841,0.0,0.0,0.0,0.0,0.0,0.0,0.0,0.0,0.0,0.268679,-0.198602,9.813951,0.0,0.0,0.0,0.0,0.0,0.0,0.0,0.0,0.0
1659939461880651897,165351,1659939461880651897,imu,-0.011406,-0.014031,-0.006855,0.999812,0.0,0.0,0.0,0.0,0.0,0.0,0.0,0.0,0.0,-0.00366552304175,0.000549726354501,0.00138617539852,0.0,0.0,0.0,0.0,0.0,0.0,0.0,0.0,0.0,0.289685,-0.251086,9.791933,0.0,0.0,0.0,0.0,0.0,0.0,0.0,0.0,0.0
1659939461885612083,165352,1659939461885612083,imu,-0.011411,-0.014035,-0.006854,0.999812,0.0,0.0,0.0,0.0,0.0,0.0,0.0,0.0,0.0,-0.000649087948817,-0.00287876352153,0.000422840917881,0.0,0.0,0.0,0.0,0.0,0.0,0.0,0.0,0.0,0.292407,-0.210612,9.804168,0.0,0.0,0.0,0.0,0.0,0.0,0.0,0.0,0.0
1659939461890549221,165353,1659939461890549221,imu,-0.011413,-0.014036,-0.006853,0.999812,0.0,0.0,0.0,0.0,0.0,0.0,0.0,0.0,0.0,-0.000328261525715,0.000226631003371,0.000138648955778,0.0,0.0,0.0,0.0,0.0,0.0,0.0,0.0,0.0,0.259015,-0.2104,9.804384,0.0,0.0,0.0,0.0,0.0,0.0,0.0,0.0,0.0
1659939461895736314,165354,1659939461895736314,imu,-0.011417,-0.014031,-0.006854,0.999812,0.0,0.0,0.0,0.0,0.0,0.0,0.0,0.0,0.0,-0.00214752292482,0.0011748160261,-0.000449701535069,0.0,0.0,0.0,0.0,0.0,0.0,0.0,0.0,0.0,0.24944,-0.215114,9.804406,0.0,0.0,0.0,0.0,0.0,0.0,0.0,0.0,0.0
1659939461900701948,165355,1659939461900701948,imu,-0.011419,-0.014024,-0.006854,0.999812,0.0,0.0,0.0,0.0,0.0,0.0,0.0,0.0,0.0,-0.00122022949324,0.00364820937557,0.000171042266695,0.0,0.0,0.0,0.0,0.0,0.0,0.0,0.0,0.0,0.265978,-0.222163,9.778029,0.0,0.0,0.0,0.0,0.0,0.0,0.0,0.0,0.0
1659939461905577977,165356,1659939461905577977,imu,-0.011417,-0.014021,-0.006854,0.999813,0.0,0.0,0.0,0.0,0.0,0.0,0.0,0.0,0.0,0.00360953287934,-0.00134247235405,-0.0011227877611,0.0,0.0,0.0,0.0,0.0,0.0,0.0,0.0,0.0,0.280212,-0.241475,9.792074,0.0,0.0,0.0,0.0,0.0,0.0,0.0,0.0,0.0
1659939461910684965,165357,1659939461910684965,imu,-0.011418,-0.014024,-0.006854,0.999812,0.0,0.0,0.0,0.0,0.0,0.0,0.0,0.0,0.0,-0.00122633814562,0.00271903098839,-0.000140586271248,0.0,0.0,0.0,0.0,0.0,0.0,0.0,0.0,0.0,0.258845,-0.234276,9.804187,0.0,0.0,0.0,0.0,0.0,0.0,0.0,0.0,0.0
1659939461915689428,165358,1659939461915689428,imu,-0.011422,-0.014017,-0.006853,0.999813,0.0,0.0,0.0,0.0,0.0,0.0,0.0,0.0,0.0,-0.000323147711007,0.000842959122128,0.000752760506385,0.0,0.0,0.0,0.0,0.0,0.0,0.0,0.0,0.0,0.251918,-0.210474,9.818727,0.0,0.0,0.0,0.0,0.0,0.0,0.0,0.0,0.0
1659939461920621539,165359,1659939461920621539,imu,-0.011419,-0.014012,-0.006852,0.999813,0.0,0.0,0.0,0.0,0.0,0.0,0.0,0.0,0.0,0.00151328772794,0.00331738221585,0.000452092636144,0.0,0.0,0.0,0.0,0.0,0.0,0.0,0.0,0.0,0.263801,-0.224996,9.832827,0.0,0.0,0.0,0.0,0.0,0.0,0.0,0.0,0.0
1659939461925713720,165360,1659939461925713720,imu,-0.011419,-0.014007,-0.006849,0.999813,0.0,0.0,0.0,0.0,0.0,0.0,0.0,0.0,0.0,-0.000934571454565,-8.92386846545e-05,0.00136016999266,0.0,0.0,0.0,0.0,0.0,0.0,0.0,0.0,0.0,0.289655,-0.251026,9.784784,0.0,0.0,0.0,0.0,0.0,0.0,0.0,0.0,0.0
1659939461930654630,165361,1659939461930654630,imu,-0.011424,-0.014017,-0.006846,0.999813,0.0,0.0,0.0,0.0,0.0,0.0,0.0,0.0,0.0,-0.00247999069404,-0.00410648047726,0.000123185338606,0.0,0.0,0.0,0.0,0.0,0.0,0.0,0.0,0.0,0.287469,-0.227195,9.792147,0.0,0.0,0.0,0.0,0.0,0.0,0.0,0.0,0.0
1659939461935651272,165362,1659939461935651272,imu,-0.011427,-0.014027,-0.006844,0.999812,0.0,0.0,0.0,0.0,0.0,0.0,0.0,0.0,0.0,-0.000352155083175,-0.00380761029615,-0.000195930661829,0.0,0.0,0.0,0.0,0.0,0.0,0.0,0.0,0.0,0.254045,-0.224495,9.780469,0.0,0.0,0.0,0.0,0.0,0.0,0.0,0.0,0.0
1659939461940598817,165363,1659939461940598817,imu,-0.011431,-0.014026,-0.006843,0.999812,0.0,0.0,0.0,0.0,0.0,0.0,0.0,0.0,0.0,-0.00213589903201,0.0020876057716,0.00199527785417,0.0,0.0,0.0,0.0,0.0,0.0,0.0,0.0,0.0,0.227979,-0.219833,9.814035,0.0,0.0,0.0,0.0,0.0,0.0,0.0,0.0,0.0
1659939461945729340,165364,1659939461945729340,imu,-0.011429,-0.014022,-0.006843,0.999812,0.0,0.0,0.0,0.0,0.0,0.0,0.0,0.0,0.0,0.00332289745629,0.00208210798446,-0.0020094499277,0.0,0.0,0.0,0.0,0.0,0.0,0.0,0.0,0.0,0.263496,-0.231638,9.770817,0.0,0.0,0.0,0.0,0.0,0.0,0.0,0.0,0.0
1659939461950643292,165365,1659939461950643292,imu,-0.011425,-0.014024,-0.006845,0.999812,0.0,0.0,0.0,0.0,0.0,0.0,0.0,0.0,0.0,0.000574335496954,-0.00133187820549,0.000120043745952,0.0,0.0,0.0,0.0,0.0,0.0,0.0,0.0,0.0,0.289786,-0.22707,9.775452,0.0,0.0,0.0,0.0,0.0,0.0,0.0,0.0,0.0
1659939461955587415,165366,1659939461955587415,imu,-0.011424,-0.014026,-0.006845,0.999812,0.0,0.0,0.0,0.0,0.0,0.0,0.0,0.0,0.0,0.000579658751172,-0.000400361077115,0.000126920343205,0.0,0.0,0.0,0.0,0.0,0.0,0.0,0.0,0.0,0.244551,-0.231797,9.804299,0.0,0.0,0.0,0.0,0.0,0.0,0.0,0.0,0.0
1659939461960693704,165367,1659939461960693704,imu,-0.011425,-0.014022,-0.006843,0.999812,0.0,0.0,0.0,0.0,0.0,0.0,0.0,0.0,0.0,-0.000926473126836,0.00146562278607,0.00106688486516,0.0,0.0,0.0,0.0,0.0,0.0,0.0,0.0,0.0,0.232659,-0.217256,9.787815,0.0,0.0,0.0,0.0,0.0,0.0,0.0,0.0,0.0
1659939461965698657,165368,1659939461965698657,imu,-0.011425,-0.014016,-0.006846,0.999813,0.0,0.0,0.0,0.0,0.0,0.0,0.0,0.0,0.0,0.0027304279884,0.00488301236806,-0.00228880732777,0.0,0.0,0.0,0.0,0.0,0.0,0.0,0.0,0.0,0.2684,-0.229521,9.799399,0.0,0.0,0.0,0.0,0.0,0.0,0.0,0.0,0.0
1659939461970586000,165369,1659939461970586000,imu,-0.011423,-0.014016,-0.006846,0.999813,0.0,0.0,0.0,0.0,0.0,0.0,0.0,0.0,0.0,-0.000327476127552,0.000224292262174,0.000443418349762,0.0,0.0,0.0,0.0,0.0,0.0,0.0,0.0,0.0,0.294344,-0.275113,9.806001,0.0,0.0,0.0,0.0,0.0,0.0,0.0,0.0,0.0
1659939461975534732,165370,1659939461975534732,imu,-0.011424,-0.014019,-0.006842,0.999813,0.0,0.0,0.0,0.0,0.0,0.0,0.0,0.0,0.0,0.000875020820487,-0.00132451291605,-0.00110137257118,0.0,0.0,0.0,0.0,0.0,0.0,0.0,0.0,0.0,0.30425,-0.205672,9.775537,0.0,0.0,0.0,0.0,0.0,0.0,0.0,0.0,0.0
1659939461980858291,165371,1659939461980858291,imu,-0.011432,-0.014022,-0.006844,0.999812,0.0,0.0,0.0,0.0,0.0,0.0,0.0,0.0,0.0,-0.00367992200807,-0.000986390280057,-0.000758624812672,0.0,0.0,0.0,0.0,0.0,0.0,0.0,0.0,0.0,0.220618,-0.255702,9.825699,0.0,0.0,0.0,0.0,0.0,0.0,0.0,0.0,0.0
1659939461985635219,165372,1659939461985635219,imu,-0.011433,-0.014021,-0.006844,0.999812,0.0,0.0,0.0,0.0,0.0,0.0,0.0,0.0,0.0,0.000288066593042,0.00145998537259,0.000752603426752,0.0,0.0,0.0,0.0,0.0,0.0,0.0,0.0,0.0,0.252103,-0.191474,9.830797,0.0,0.0,0.0,0.0,0.0,0.0,0.0,0.0,0.0
1659939461990608884,165373,1659939461990608884,imu,-0.011433,-0.014022,-0.006844,0.999812,0.0,0.0,0.0,0.0,0.0,0.0,0.0,0.0,0.0,0.00118200678262,-0.00133587500948,0.000115278997094,0.0,0.0,0.0,0.0,0.0,0.0,0.0,0.0,0.0,0.273027,-0.24137,9.784971,0.0,0.0,0.0,0.0,0.0,0.0,0.0,0.0,0.0
1659939461995673758,165374,1659939461995673758,imu,-0.011436,-0.014032,-0.006843,0.999812,0.0,0.0,0.0,0.0,0.0,0.0,0.0,0.0,0.0,-0.00247545283798,-0.0031726071544,-0.00017467255154,0.0,0.0,0.0,0.0,0.0,0.0,0.0,0.0,0.0,0.285264,-0.213014,9.811342,0.0,0.0,0.0,0.0,0.0,0.0,0.0,0.0,0.0
1659939462000636877,165375,1659939462000636877,imu,-0.01144,-0.014038,-0.006839,0.999812,0.0,0.0,0.0,0.0,0.0,0.0,0.0,0.0,0.0,0.000576482251934,-0.00165410089199,0.00164155197467,0.0,0.0,0.0,0.0,0.0,0.0,0.0,0.0,0.0,0.251704,-0.229415,9.799506,0.0,0.0,0.0,0.0,0.0,0.0,0.0,0.0,0.0
1659939462005569267,165376,1659939462005569267,imu,-0.011437,-0.014042,-0.006838,0.999812,0.0,0.0,0.0,0.0,0.0,0.0,0.0,0.0,0.0,0.00331418826332,-0.000418320515118,0.000105505153283,0.0,0.0,0.0,0.0,0.0,0.0,0.0,0.0,0.0,0.273263,-0.215206,9.797104,0.0,0.0,0.0,0.0,0.0,0.0,0.0,0.0,0.0
1659939462010696997,165377,1659939462010696997,imu,-0.01143,-0.014042,-0.006839,0.999812,0.0,0.0,0.0,0.0,0.0,0.0,0.0,0.0,0.0,0.00119010511035,0.000218986461248,-0.000177988677118,0.0,0.0,0.0,0.0,0.0,0.0,0.0,0.0,0.0,0.270651,-0.221993,9.754171,0.0,0.0,0.0,0.0,0.0,0.0,0.0,0.0,0.0
1659939462015677505,165378,1659939462015677505,imu,-0.011429,-0.014045,-0.006841,0.999812,0.0,0.0,0.0,0.0,0.0,0.0,0.0,0.0,0.0,-0.000326463836586,0.00180025476355,-0.00259272151042,0.0,0.0,0.0,0.0,0.0,0.0,0.0,0.0,0.0,0.301681,-0.244039,9.796679,0.0,0.0,0.0,0.0,0.0,0.0,0.0,0.0,0.0
1659939462020610454,165379,1659939462020610454,imu,-0.011434,-0.014044,-0.006842,0.999812,0.0,0.0,0.0,0.0,0.0,0.0,0.0,0.0,0.0,-0.00366058375996,0.0021139776966,-0.000126152398334,0.0,0.0,0.0,0.0,0.0,0.0,0.0,0.0,0.0,0.285193,-0.210446,9.789917,0.0,0.0,0.0,0.0,0.0,0.0,0.0,0.0,0.0
1659939462025570151,165380,1659939462025570151,imu,-0.011433,-0.014041,-0.006845,0.999812,0.0,0.0,0.0,0.0,0.0,0.0,0.0,0.0,0.0,0.00180095289526,0.00146874692543,-0.00169738505744,0.0,0.0,0.0,0.0,0.0,0.0,0.0,0.0,0.0,0.239847,-0.22948,9.816262,0.0,0.0,0.0,0.0,0.0,0.0,0.0,0.0,0.0
1659939462030660866,165381,1659939462030660866,imu,-0.011431,-0.014035,-0.006847,0.999812,0.0,0.0,0.0,0.0,0.0,0.0,0.0,0.0,0.0,0.00090544190935,0.00426930224318,-0.00166958196246,0.0,0.0,0.0,0.0,0.0,0.0,0.0,0.0,0.0,0.268673,-0.210701,9.832914,0.0,0.0,0.0,0.0,0.0,0.0,0.0,0.0,0.0
1659939462035622518,165382,1659939462035622518,imu,-0.011425,-0.014032,-0.006848,0.999812,0.0,0.0,0.0,0.0,0.0,0.0,0.0,0.0,0.0,0.00453918250542,0.00112385241194,0.000412229316029,0.0,0.0,0.0,0.0,0.0,0.0,0.0,0.0,0.0,0.282614,-0.239103,9.792078,0.0,0.0,0.0,0.0,0.0,0.0,0.0,0.0,0.0
1659939462040584170,165383,1659939462040584170,imu,-0.01142,-0.014033,-0.006849,0.999812,0.0,0.0,0.0,0.0,0.0,0.0,0.0,0.0,0.0,-0.00217612887126,-0.00284535791965,-0.00261286260999,0.0,0.0,0.0,0.0,0.0,0.0,0.0,0.0,0.0,0.29477,-0.208159,9.794641,0.0,0.0,0.0,0.0,0.0,0.0,0.0,0.0,0.0
1659939462045714763,165384,1659939462045714763,imu,-0.011427,-0.014035,-0.006852,0.999812,0.0,0.0,0.0,0.0,0.0,0.0,0.0,0.0,0.0,-1.83085038534e-05,0.0011538197152,0.000447921299232,0.0,0.0,0.0,0.0,0.0,0.0,0.0,0.0,0.0,0.215766,-0.243394,9.785322,0.0,0.0,0.0,0.0,0.0,0.0,0.0,0.0,0.0
1659939462050675228,165385,1659939462050675228,imu,-0.011427,-0.014032,-0.006851,0.999812,0.0,0.0,0.0,0.0,0.0,0.0,0.0,0.0,0.0,-0.00092940527998,0.00179018421377,-0.00075937530425,0.0,0.0,0.0,0.0,0.0,0.0,0.0,0.0,0.0,0.256928,-0.179506,9.823718,0.0,0.0,0.0,0.0,0.0,0.0,0.0,0.0,0.0
1659939462055583384,165386,1659939462055583384,imu,-0.011427,-0.014027,-0.006852,0.999812,0.0,0.0,0.0,0.0,0.0,0.0,0.0,0.0,0.0,0.00151091408016,0.00332441589274,-0.000462180639221,0.0,0.0,0.0,0.0,0.0,0.0,0.0,0.0,0.0,0.258791,-0.229321,9.782781,0.0,0.0,0.0,0.0,0.0,0.0,0.0,0.0,0.0
1659939462060715374,165387,1659939462060715374,imu,-0.011424,-0.01402,-0.006852,0.999812,0.0,0.0,0.0,0.0,0.0,0.0,0.0,0.0,0.0,0.00303146237779,0.00299454866411,0.000742655050016,0.0,0.0,0.0,0.0,0.0,0.0,0.0,0.0,0.0,0.306581,-0.210423,9.770716,0.0,0.0,0.0,0.0,0.0,0.0,0.0,0.0,0.0
1659939462065645110,165388,1659939462065645110,imu,-0.01142,-0.014022,-0.006854,0.999812,0.0,0.0,0.0,0.0,0.0,0.0,0.0,0.0,0.0,0.000267768413841,-0.000690120639531,-0.00231107772903,0.0,0.0,0.0,0.0,0.0,0.0,0.0,0.0,0.0,0.273253,-0.215186,9.794721,0.0,0.0,0.0,0.0,0.0,0.0,0.0,0.0,0.0
1659939462070640355,165389,1659939462070640355,imu,-0.011417,-0.014016,-0.006855,0.999813,0.0,0.0,0.0,0.0,0.0,0.0,0.0,0.0,0.0,0.00181514242207,0.00268969200366,0.00105463265381,0.0,0.0,0.0,0.0,0.0,0.0,0.0,0.0,0.0,0.230128,-0.236322,9.78529,0.0,0.0,0.0,0.0,0.0,0.0,0.0,0.0,0.0
1659939462075558497,165390,1659939462075558497,imu,-0.011411,-0.014009,-0.006851,0.999813,0.0,0.0,0.0,0.0,0.0,0.0,0.0,0.0,0.0,0.00272999165609,0.00298952211586,0.00165931942646,0.0,0.0,0.0,0.0,0.0,0.0,0.0,0.0,0.0,0.247048,-0.217507,9.806785,0.0,0.0,0.0,0.0,0.0,0.0,0.0,0.0,0.0
1659939462080656685,165391,1659939462080656685,imu,-0.011414,-0.014012,-0.006848,0.999813,0.0,0.0,0.0,0.0,0.0,0.0,0.0,0.0,0.0,0.000869662659684,-0.00351914227738,0.00162540767909,0.0,0.0,0.0,0.0,0.0,0.0,0.0,0.0,0.0,0.284924,-0.251076,9.794346,0.0,0.0,0.0,0.0,0.0,0.0,0.0,0.0,0.0
1659939462086590428,165392,1659939462086590428,imu,-0.011414,-0.014017,-0.006849,0.999813,0.0,0.0,0.0,0.0,0.0,0.0,0.0,0.0,0.0,-0.00276742896855,-0.000679526490971,-0.00106822876868,0.0,0.0,0.0,0.0,0.0,0.0,0.0,0.0,0.0,0.275654,-0.193432,9.761526,0.0,0.0,0.0,0.0,0.0,0.0,0.0,0.0,0.0
1659939462092519842,165393,1659939462092519842,imu,-0.011417,-0.014016,-0.006846,0.999813,0.0,0.0,0.0,0.0,0.0,0.0,0.0,0.0,0.0,0.00120548146106,0.00206797081752,0.00166432852141,0.0,0.0,0.0,0.0,0.0,0.0,0.0,0.0,0.0,0.218288,-0.243689,9.818666,0.0,0.0,0.0,0.0,0.0,0.0,0.0,0.0,0.0
1659939462095713027,165394,1659939462095713027,imu,-0.011414,-0.014011,-0.006846,0.999813,0.0,0.0,0.0,0.0,0.0,0.0,0.0,0.0,0.0,0.00272033998533,0.0027024329072,-0.00139057362823,0.0,0.0,0.0,0.0,0.0,0.0,0.0,0.0,0.0,0.244738,-0.205534,9.804516,0.0,0.0,0.0,0.0,0.0,0.0,0.0,0.0,0.0
1659939462100682571,165395,1659939462100682571,imu,-0.01141,-0.014005,-0.006845,0.999813,0.0,0.0,0.0,0.0,0.0,0.0,0.0,0.0,0.0,-0.000324509067823,0.00116284306743,-0.00046397832835,0.0,0.0,0.0,0.0,0.0,0.0,0.0,0.0,0.0,0.270615,-0.243722,9.782586,0.0,0.0,0.0,0.0,0.0,0.0,0.0,0.0,0.0
1659939462105602110,165396,1659939462105602110,imu,-0.011413,-0.01401,-0.006845,0.999813,0.0,0.0,0.0,0.0,0.0,0.0,0.0,0.0,0.0,-0.000960035808352,-0.00411880250178,0.000416034133798,0.0,0.0,0.0,0.0,0.0,0.0,0.0,0.0,0.0,0.299312,-0.231946,9.780115,0.0,0.0,0.0,0.0,0.0,0.0,0.0,0.0,0.0
1659939462110701066,165397,1659939462110701066,imu,-0.011409,-0.014012,-0.006846,0.999813,0.0,0.0,0.0,0.0,0.0,0.0,0.0,0.0,0.0,0.00211226727393,0.00207605169195,-0.000171356425961,0.0,0.0,0.0,0.0,0.0,0.0,0.0,0.0,0.0,0.258816,-0.234216,9.797038,0.0,0.0,0.0,0.0,0.0,0.0,0.0,0.0,0.0
1659939462117787505,165398,1659939462117787505,imu,-0.011411,-0.014007,-0.006848,0.999813,0.0,0.0,0.0,0.0,0.0,0.0,0.0,0.0,0.0,-0.00062341415552,0.00146597185192,0.000759741823393,0.0,0.0,0.0,0.0,0.0,0.0,0.0,0.0,0.0,0.237277,-0.238775,9.787606,0.0,0.0,0.0,0.0,0.0,0.0,0.0,0.0,0.0
1659939462120606771,165399,1659939462120606771,imu,-0.011407,-0.014005,-0.006846,0.999813,0.0,0.0,0.0,0.0,0.0,0.0,0.0,0.0,0.0,0.00180348362267,0.000513790025202,0.00134334501867,0.0,0.0,0.0,0.0,0.0,0.0,0.0,0.0,0.0,0.2589,-0.212587,9.780537,0.0,0.0,0.0,0.0,0.0,0.0,0.0,0.0,0.0
1659939462125648948,165400,1659939462125648948,imu,-0.011407,-0.014005,-0.006846,0.999813,0.0,0.0,0.0,0.0,0.0,0.0,0.0,0.0,0.0,-0.00306277358457,0.000244607894667,0.0001600641457,0.0,0.0,0.0,0.0,0.0,0.0,0.0,0.0,0.0,0.299249,-0.246352,9.789528,0.0,0.0,0.0,0.0,0.0,0.0,0.0,0.0,0.0
1659939462130671151,165401,1659939462130671151,imu,-0.011411,-0.014009,-0.006848,0.999813,0.0,0.0,0.0,0.0,0.0,0.0,0.0,0.0,0.0,0.00209093935047,-0.00165003427484,-0.000198897721557,0.0,0.0,0.0,0.0,0.0,0.0,0.0,0.0,0.0,0.263617,-0.217353,9.775702,0.0,0.0,0.0,0.0,0.0,0.0,0.0,0.0,0.0
1659939462135617928,165402,1659939462135617928,imu,-0.011408,-0.014014,-0.006848,0.999813,0.0,0.0,0.0,0.0,0.0,0.0,0.0,0.0,0.0,0.00116820122824,-0.00318955430143,-0.00111751686676,0.0,0.0,0.0,0.0,0.0,0.0,0.0,0.0,0.0,0.216075,-0.212535,9.807026,0.0,0.0,0.0,0.0,0.0,0.0,0.0,0.0,0.0
1659939462140560165,165403,1659939462140560165,imu,-0.011405,-0.014017,-0.00685,0.999813,0.0,0.0,0.0,0.0,0.0,0.0,0.0,0.0,0.0,0.000903050808274,0.00301320623381,0.000149784156406,0.0,0.0,0.0,0.0,0.0,0.0,0.0,0.0,0.0,0.261408,-0.217698,9.818605,0.0,0.0,0.0,0.0,0.0,0.0,0.0,0.0,0.0
1659939462145713246,165404,1659939462145713246,imu,-0.011404,-0.014016,-0.006849,0.999813,0.0,0.0,0.0,0.0,0.0,0.0,0.0,0.0,0.0,0.00148604313832,-0.00102267567521,-0.00049431215075,0.0,0.0,0.0,0.0,0.0,0.0,0.0,0.0,0.0,0.294445,-0.251096,9.789518,0.0,0.0,0.0,0.0,0.0,0.0,0.0,0.0,0.0
1659939462150707792,165405,1659939462150707792,imu,-0.011405,-0.014024,-0.00685,0.999813,0.0,0.0,0.0,0.0,0.0,0.0,0.0,0.0,0.0,-0.00276803983379,-0.00162511097312,0.000753441184793,0.0,0.0,0.0,0.0,0.0,0.0,0.0,0.0,0.0,0.311539,-0.20357,9.804104,0.0,0.0,0.0,0.0,0.0,0.0,0.0,0.0,0.0
1659939462155634665,165406,1659939462155634665,imu,-0.011412,-0.014022,-0.006852,0.999813,0.0,0.0,0.0,0.0,0.0,0.0,0.0,0.0,0.0,-0.00244620111972,0.00305626350646,-0.0025668731842,0.0,0.0,0.0,0.0,0.0,0.0,0.0,0.0,0.0,0.261267,-0.231944,9.808956,0.0,0.0,0.0,0.0,0.0,0.0,0.0,0.0,0.0
1659939462160530599,165407,1659939462160530599,imu,-0.011412,-0.014023,-0.006853,0.999813,0.0,0.0,0.0,0.0,0.0,0.0,0.0,0.0,0.0,0.0011841535376,-0.00165809769598,0.00163678722581,0.0,0.0,0.0,0.0,0.0,0.0,0.0,0.0,0.0,0.239958,-0.215174,9.818764,0.0,0.0,0.0,0.0,0.0,0.0,0.0,0.0,0.0
1659939462165650716,165408,1659939462165650716,imu,-0.01141,-0.014024,-0.006848,0.999813,0.0,0.0,0.0,0.0,0.0,0.0,0.0,0.0,0.0,-0.000313286600733,0.00144523734041,0.00319545351431,0.0,0.0,0.0,0.0,0.0,0.0,0.0,0.0,0.0,0.266002,-0.207677,9.759086,0.0,0.0,0.0,0.0,0.0,0.0,0.0,0.0,0.0
1659939462170772579,165409,1659939462170772579,imu,-0.011407,-0.014026,-0.00685,0.999813,0.0,0.0,0.0,0.0,0.0,0.0,0.0,0.0,0.0,0.00390468550915,-0.0025818132026,-0.00174388062872,0.0,0.0,0.0,0.0,0.0,0.0,0.0,0.0,0.0,0.287435,-0.23197,9.792107,0.0,0.0,0.0,0.0,0.0,0.0,0.0,0.0,0.0
1659939462175600210,165410,1659939462175600210,imu,-0.011406,-0.014033,-0.006851,0.999812,0.0,0.0,0.0,0.0,0.0,0.0,0.0,0.0,0.0,-0.000651444143307,-0.00287174729794,-0.000491432357484,0.0,0.0,0.0,0.0,0.0,0.0,0.0,0.0,0.0,0.268366,-0.224606,9.782759,0.0,0.0,0.0,0.0,0.0,0.0,0.0,0.0,0.0
1659939462180685059,165411,1659939462180685059,imu,-0.011406,-0.014034,-0.006852,0.999812,0.0,0.0,0.0,0.0,0.0,0.0,0.0,0.0,0.0,-1.15889862332e-05,0.00302856513123,-0.00106210266301,0.0,0.0,0.0,0.0,0.0,0.0,0.0,0.0,0.0,0.223274,-0.198134,9.792802,0.0,0.0,0.0,0.0,0.0,0.0,0.0,0.0,0.0
1659939462185618147,165412,1659939462185618147,imu,-0.011405,-0.014029,-0.006853,0.999813,0.0,0.0,0.0,0.0,0.0,0.0,0.0,0.0,0.0,0.000286286357205,0.00114947384536,0.00075029959214,0.0,0.0,0.0,0.0,0.0,0.0,0.0,0.0,0.0,0.28295,-0.215567,9.832782,0.0,0.0,0.0,0.0,0.0,0.0,0.0,0.0,0.0
1659939462190583081,165413,1659939462190583081,imu,-0.011408,-0.014029,-0.006851,0.999813,0.0,0.0,0.0,0.0,0.0,0.0,0.0,0.0,0.0,-0.000649087948817,-0.00287876352153,0.000422840917881,0.0,0.0,0.0,0.0,0.0,0.0,0.0,0.0,0.0,0.275405,-0.243792,9.787319,0.0,0.0,0.0,0.0,0.0,0.0,0.0,0.0,0.0
1659939462195692723,165414,1659939462195692723,imu,-0.011414,-0.014035,-0.006852,0.999812,0.0,0.0,0.0,0.0,0.0,0.0,0.0,0.0,0.0,-0.00153868226856,0.000535763720485,0.00136950750416,0.0,0.0,0.0,0.0,0.0,0.0,0.0,0.0,0.0,0.2997,-0.184293,9.792425,0.0,0.0,0.0,0.0,0.0,0.0,0.0,0.0,0.0
1659939462200657867,165415,1659939462200657867,imu,-0.011416,-0.014034,-0.00685,0.999812,0.0,0.0,0.0,0.0,0.0,0.0,0.0,0.0,0.0,-0.00245866277058,-0.000380394510472,0.00015070918091,0.0,0.0,0.0,0.0,0.0,0.0,0.0,0.0,0.0,0.244678,-0.232058,9.835274,0.0,0.0,0.0,0.0,0.0,0.0,0.0,0.0,0.0
1659939462205603806,165416,1659939462205603806,imu,-0.011416,-0.014027,-0.006851,0.999812,0.0,0.0,0.0,0.0,0.0,0.0,0.0,0.0,0.0,0.000591718976304,0.00240590146729,-0.00137620956849,0.0,0.0,0.0,0.0,0.0,0.0,0.0,0.0,0.0,0.242426,-0.200823,9.814102,0.0,0.0,0.0,0.0,0.0,0.0,0.0,0.0,0.0
1659939462210533471,165417,1659939462210533471,imu,-0.011412,-0.01402,-0.006853,0.999813,0.0,0.0,0.0,0.0,0.0,0.0,0.0,0.0,0.0,0.00151290375551,0.00395011642958,-0.00106711175796,0.0,0.0,0.0,0.0,0.0,0.0,0.0,0.0,0.0,0.273231,-0.212718,9.78521,0.0,0.0,0.0,0.0,0.0,0.0,0.0,0.0,0.0
1659939462215657360,165418,1659939462215657360,imu,-0.011411,-0.014022,-0.006851,0.999813,0.0,0.0,0.0,0.0,0.0,0.0,0.0,0.0,0.0,0.00117982512106,-0.00227676455593,0.00132744506919,0.0,0.0,0.0,0.0,0.0,0.0,0.0,0.0,0.0,0.28965,-0.23648,9.758695,0.0,0.0,0.0,0.0,0.0,0.0,0.0,0.0,0.0
1659939462220611540,165419,1659939462220611540,imu,-0.011413,-0.014022,-0.006849,0.999813,0.0,0.0,0.0,0.0,0.0,0.0,0.0,0.0,0.0,-0.00123028258973,0.00273074214767,-0.00166439833458,0.0,0.0,0.0,0.0,0.0,0.0,0.0,0.0,0.0,0.239829,-0.222177,9.799643,0.0,0.0,0.0,0.0,0.0,0.0,0.0,0.0,0.0
1659939462225567954,165420,1659939462225567954,imu,-0.011415,-0.014018,-0.006852,0.999813,0.0,0.0,0.0,0.0,0.0,0.0,0.0,0.0,0.0,0.00027309166806,0.000241379035551,-0.00230418367848,0.0,0.0,0.0,0.0,0.0,0.0,0.0,0.0,0.0,0.237296,-0.229124,9.775772,0.0,0.0,0.0,0.0,0.0,0.0,0.0,0.0,0.0
1659939462230724737,165421,1659939462230724737,imu,-0.011413,-0.014018,-0.006855,0.999813,0.0,0.0,0.0,0.0,0.0,0.0,0.0,0.0,0.0,0.00148822479988,-8.17861287485e-05,-0.00170647822284,0.0,0.0,0.0,0.0,0.0,0.0,0.0,0.0,0.0,0.277952,-0.212648,9.773265,0.0,0.0,0.0,0.0,0.0,0.0,0.0,0.0,0.0
1659939462235613337,165422,1659939462235613337,imu,-0.011414,-0.014018,-0.006857,0.999813,0.0,0.0,0.0,0.0,0.0,0.0,0.0,0.0,0.0,-1.24092909817e-05,0.00176780909276,0.00136680224382,0.0,0.0,0.0,0.0,0.0,0.0,0.0,0.0,0.0,0.275401,-0.258318,9.811028,0.0,0.0,0.0,0.0,0.0,0.0,0.0,0.0,0.0
