%time,field.header.seq,field.header.stamp,field.header.frame_id,field.orientation.x,field.orientation.y,field.orientation.z,field.orientation.w,field.orientation_covariance0,field.orientation_covariance1,field.orientation_covariance2,field.orientation_covariance3,field.orientation_covariance4,field.orientation_covariance5,field.orientation_covariance6,field.orientation_covariance7,field.orientation_covariance8,field.angular_velocity.x,field.angular_velocity.y,field.angular_velocity.z,field.angular_velocity_covariance0,field.angular_velocity_covariance1,field.angular_velocity_covariance2,field.angular_velocity_covariance3,field.angular_velocity_covariance4,field.angular_velocity_covariance5,field.angular_velocity_covariance6,field.angular_velocity_covariance7,field.angular_velocity_covariance8,field.linear_acceleration.x,field.linear_acceleration.y,field.linear_acceleration.z,field.linear_acceleration_covariance0,field.linear_acceleration_covariance1,field.linear_acceleration_covariance2,field.linear_acceleration_covariance3,field.linear_acceleration_covariance4,field.linear_acceleration_covariance5,field.linear_acceleration_covariance6,field.linear_acceleration_covariance7,field.linear_acceleration_covariance8
1659939421407044774,147842,1659939421407044774,imu,-0.0138487440937,-0.00506061563363,-0.281092384944,0.959567440873,0.0,0.0,0.0,0.0,0.0,0.0,0.0,0.0,0.0,-0.00196204341617,-0.000159865447982,-0.00217880979825,0.0,0.0,0.0,0.0,0.0,0.0,0.0,0.0,0.0,0.175446,-0.219399,9.800092,0.0,0.0,0.0,0.0,0.0,0.0,0.0,0.0,0.0
1659939421412182912,147843,1659939421412182912,imu,-0.0138350726708,-0.0050639334094,-0.28109416983,0.959567097722,0.0,0.0,0.0,0.0,0.0,0.0,0.0,0.0,0.0,0.000469588184857,0.000121700948211,-0.00066501808802,0.0,0.0,0.0,0.0,0.0,0.0,0.0,0.0,0.0,0.170741,-0.207391,9.795456,0.0,0.0,0.0,0.0,0.0,0.0,0.0,0.0,0.0
1659939421417112928,147844,1659939421417112928,imu,-0.0138279550202,-0.00508323393451,-0.281095211681,0.95956679307,0.0,0.0,0.0,0.0,0.0,0.0,0.0,0.0,0.0,0.00135925817839,-0.00142475553183,-0.000375082643584,0.0,0.0,0.0,0.0,0.0,0.0,0.0,0.0,0.0,0.196907,-0.21468,9.790461,0.0,0.0,0.0,0.0,0.0,0.0,0.0,0.0,0.0
1659939421422047345,147845,1659939421422047345,imu,-0.0138147986309,-0.00509237572191,-0.281096195563,0.959566645882,0.0,0.0,0.0,0.0,0.0,0.0,0.0,0.0,0.0,0.000140748575028,-0.00171000071657,-0.000364178410676,0.0,0.0,0.0,0.0,0.0,0.0,0.0,0.0,0.0,0.173053,-0.202411,9.769272,0.0,0.0,0.0,0.0,0.0,0.0,0.0,0.0,0.0
1659939421427174587,147846,1659939421427174587,imu,-0.0138202695216,-0.00509438569371,-0.281093369678,0.959567384246,0.0,0.0,0.0,0.0,0.0,0.0,0.0,0.0,0.0,0.000463352389198,0.00167493688073,0.00117065521244,0.0,0.0,0.0,0.0,0.0,0.0,0.0,0.0,0.0,0.187212,-0.243371,9.802199,0.0,0.0,0.0,0.0,0.0,0.0,0.0,0.0,0.0
1659939421432330743,147847,1659939421432330743,imu,-0.0138085451729,-0.00508703819505,-0.281097308725,0.959566438112,0.0,0.0,0.0,0.0,0.0,0.0,0.0,0.0,0.0,-0.00136007792716,0.000461305113554,-0.00155141484848,0.0,0.0,0.0,0.0,0.0,0.0,0.0,0.0,0.0,0.154104,-0.207405,9.809862,0.0,0.0,0.0,0.0,0.0,0.0,0.0,0.0,0.0
1659939421437063184,147848,1659939421437063184,imu,-0.0138153394926,-0.00508506081563,-0.2810980548,0.959566132238,0.0,0.0,0.0,0.0,0.0,0.0,0.0,0.0,0.0,-0.00104081589065,0.000752850001873,-0.000329134851136,0.0,0.0,0.0,0.0,0.0,0.0,0.0,0.0,0.0,0.175293,-0.240888,9.799912,0.0,0.0,0.0,0.0,0.0,0.0,0.0,0.0,0.0
1659939421442260475,147849,1659939421442260475,imu,-0.0138026287558,-0.00507325518788,-0.281098200456,0.959566334977,0.0,0.0,0.0,0.0,0.0,0.0,0.0,0.0,0.0,0.000483142493715,0.00227012019981,-2.45364928117e-05,0.0,0.0,0.0,0.0,0.0,0.0,0.0,0.0,0.0,0.153977,-0.216835,9.795485,0.0,0.0,0.0,0.0,0.0,0.0,0.0,0.0,0.0
1659939421447150963,147850,1659939421447150963,imu,-0.0137924053144,-0.0050712143078,-0.281099722775,0.959566046813,0.0,0.0,0.0,0.0,0.0,0.0,0.0,0.0,0.0,0.00166586293696,-0.000215046147072,-0.000655328707043,0.0,0.0,0.0,0.0,0.0,0.0,0.0,0.0,0.0,0.161157,-0.221776,9.809696,0.0,0.0,0.0,0.0,0.0,0.0,0.0,0.0,0.0
1659939421452132730,147851,1659939421452132730,imu,-0.0137943554839,-0.00506863911817,-0.281095500488,0.959567269273,0.0,0.0,0.0,0.0,0.0,0.0,0.0,0.0,0.0,-0.00164626983735,0.0010198919752,0.00179993583228,0.0,0.0,0.0,0.0,0.0,0.0,0.0,0.0,0.0,0.173081,-0.229115,9.821473,0.0,0.0,0.0,0.0,0.0,0.0,0.0,0.0,0.0
1659939421457136497,147852,1659939421457136497,imu,-0.0137930649131,-0.00505577674518,-0.28109991051,0.959566063798,0.0,0.0,0.0,0.0,0.0,0.0,0.0,0.0,0.0,0.00047519502741,0.00256068635296,-0.00184375204561,0.0,0.0,0.0,0.0,0.0,0.0,0.0,0.0,0.0,0.158546,-0.238254,9.783363,0.0,0.0,0.0,0.0,0.0,0.0,0.0,0.0,0.0
1659939421462159260,147853,1659939421462159260,imu,-0.013801648406,-0.00504466266613,-0.281103405546,0.959564975012,0.0,0.0,0.0,0.0,0.0,0.0,0.0,0.0,0.0,-0.0016554491096,-0.00114220340629,-0.0015343747711,0.0,0.0,0.0,0.0,0.0,0.0,0.0,0.0,0.0,0.148915,-0.245276,9.773834,0.0,0.0,0.0,0.0,0.0,0.0,0.0,0.0,0.0
1659939421467100032,147854,1659939421467100032,imu,-0.0137994214369,-0.00504544167753,-0.281106218438,0.959564178907,0.0,0.0,0.0,0.0,0.0,0.0,0.0,0.0,0.0,0.00136455121053,-0.00207508286284,-0.00124770266147,0.0,0.0,0.0,0.0,0.0,0.0,0.0,0.0,0.0,0.160975,-0.233514,9.785769,0.0,0.0,0.0,0.0,0.0,0.0,0.0,0.0,0.0
1659939421472062175,147855,1659939421472062175,imu,-0.0138074825142,-0.00504759344444,-0.281107514383,0.95956367198,0.0,0.0,0.0,0.0,0.0,0.0,0.0,0.0,0.0,0.000448315133474,-0.00236044253919,-0.000626996018362,0.0,0.0,0.0,0.0,0.0,0.0,0.0,0.0,0.0,0.168087,-0.248005,9.7999,0.0,0.0,0.0,0.0,0.0,0.0,0.0,0.0,0.0
1659939421477203804,147856,1659939421477203804,imu,-0.01379096536,-0.00503318546262,-0.281106101925,0.959564398974,0.0,0.0,0.0,0.0,0.0,0.0,0.0,0.0,0.0,0.000176080323459,0.00288169285901,0.000627094123475,0.0,0.0,0.0,0.0,0.0,0.0,0.0,0.0,0.0,0.149277,-0.209682,9.80034,0.0,0.0,0.0,0.0,0.0,0.0,0.0,0.0,0.0
1659939421482137382,147857,1659939421482137382,imu,-0.0138096242561,-0.00503300469465,-0.281101704493,0.959565419798,0.0,0.0,0.0,0.0,0.0,0.0,0.0,0.0,0.0,-0.00134063028476,0.000394263948922,0.00182128228385,0.0,0.0,0.0,0.0,0.0,0.0,0.0,0.0,0.0,0.182215,-0.259834,9.775883,0.0,0.0,0.0,0.0,0.0,0.0,0.0,0.0,0.0
1659939421487079690,147858,1659939421487079690,imu,-0.0137928733635,-0.00503586590581,-0.281100500132,0.959565998525,0.0,0.0,0.0,0.0,0.0,0.0,0.0,0.0,0.0,0.00228448602113,0.0012980782235,0.000574756998936,0.0,0.0,0.0,0.0,0.0,0.0,0.0,0.0,0.0,0.173099,-0.209774,9.793038,0.0,0.0,0.0,0.0,0.0,0.0,0.0,0.0,0.0
1659939421492033592,147859,1659939421492033592,imu,-0.0138019859647,-0.0050410190473,-0.281101291032,0.959565608747,0.0,0.0,0.0,0.0,0.0,0.0,0.0,0.0,0.0,-0.00165982516538,-0.00021924320533,-0.000316855296717,0.0,0.0,0.0,0.0,0.0,0.0,0.0,0.0,0.0,0.184968,-0.238801,9.828464,0.0,0.0,0.0,0.0,0.0,0.0,0.0,0.0,0.0
1659939421497144143,147860,1659939421497144143,imu,-0.0137971163582,-0.00503648483634,-0.281103637015,0.959565015336,0.0,0.0,0.0,0.0,0.0,0.0,0.0,0.0,0.0,-0.00224110655323,0.000713738727333,-0.000905587932427,0.0,0.0,0.0,0.0,0.0,0.0,0.0,0.0,0.0,0.163671,-0.214788,9.828801,0.0,0.0,0.0,0.0,0.0,0.0,0.0,0.0,0.0
1659939421502107752,147861,1659939421502107752,imu,-0.0138052974134,-0.00504508109645,-0.281104487153,0.959564603465,0.0,0.0,0.0,0.0,0.0,0.0,0.0,0.0,0.0,-0.00282224256034,9.10973657755e-05,-0.00029293314418,0.0,0.0,0.0,0.0,0.0,0.0,0.0,0.0,0.0,0.192113,-0.229136,9.809436,0.0,0.0,0.0,0.0,0.0,0.0,0.0,0.0,0.0
1659939421507052086,147862,1659939421507052086,imu,-0.01379557881,-0.00504856538924,-0.281103967617,0.95956487711,0.0,0.0,0.0,0.0,0.0,0.0,0.0,0.0,0.0,0.000222540272834,0.00129539715261,0.000298942708049,0.0,0.0,0.0,0.0,0.0,0.0,0.0,0.0,0.0,0.177716,-0.211911,9.759629,0.0,0.0,0.0,0.0,0.0,0.0,0.0,0.0,0.0
1659939421512177442,147863,1659939421512177442,imu,-0.0137921339271,-0.00506033452843,-0.281106395829,0.95956415329,0.0,0.0,0.0,0.0,0.0,0.0,0.0,0.0,0.0,0.0011160457675,0.000670982436546,-0.000922493009374,0.0,0.0,0.0,0.0,0.0,0.0,0.0,0.0,0.0,0.194474,-0.224256,9.795163,0.0,0.0,0.0,0.0,0.0,0.0,0.0,0.0,0.0
1659939421517108786,147864,1659939421517108786,imu,-0.0137891860713,-0.00506192196316,-0.281104386035,0.959564776055,0.0,0.0,0.0,0.0,0.0,0.0,0.0,0.0,0.0,-0.000689928564322,0.00158443567564,0.00091795214133,0.0,0.0,0.0,0.0,0.0,0.0,0.0,0.0,0.0,0.18019,-0.221797,9.797657,0.0,0.0,0.0,0.0,0.0,0.0,0.0,0.0,0.0
1659939421522191820,147865,1659939421522191820,imu,-0.0137909898793,-0.00506206387635,-0.2811066905,0.959564074288,0.0,0.0,0.0,0.0,0.0,0.0,0.0,0.0,0.0,-0.000687694543769,0.00158250072036,-0.000901505744065,0.0,0.0,0.0,0.0,0.0,0.0,0.0,0.0,0.0,0.180092,-0.231288,9.79043,0.0,0.0,0.0,0.0,0.0,0.0,0.0,0.0,0.0
1659939421527216888,147866,1659939421527216888,imu,-0.0138011095045,-0.00505685510583,-0.281110345362,0.959562885549,0.0,0.0,0.0,0.0,0.0,0.0,0.0,0.0,0.0,-0.00308522611098,0.00220192930965,-0.00147252136746,0.0,0.0,0.0,0.0,0.0,0.0,0.0,0.0,0.0,0.177696,-0.238515,9.799917,0.0,0.0,0.0,0.0,0.0,0.0,0.0,0.0,0.0
1659939421532134613,147867,1659939421532134613,imu,-0.0138026163729,-0.00504609260553,-0.281107374499,0.959563790862,0.0,0.0,0.0,0.0,0.0,0.0,0.0,0.0,0.0,-0.00185648928344,-6.86723059355e-07,0.00123228209124,0.0,0.0,0.0,0.0,0.0,0.0,0.0,0.0,0.0,0.151383,-0.230926,9.769173,0.0,0.0,0.0,0.0,0.0,0.0,0.0,0.0,0.0
1659939421537782366,147868,1659939421537782366,imu,-0.0138214838221,-0.00504036766987,-0.281108764345,0.959563142209,0.0,0.0,0.0,0.0,0.0,0.0,0.0,0.0,0.0,-0.00245475882938,-0.00182720025383,-0.000599234933604,0.0,0.0,0.0,0.0,0.0,0.0,0.0,0.0,0.0,0.160952,-0.257691,9.821313,0.0,0.0,0.0,0.0,0.0,0.0,0.0,0.0,0.0
1659939421542091303,147869,1659939421542091303,imu,-0.0138123561818,-0.00503423870374,-0.281107505485,0.959563674603,0.0,0.0,0.0,0.0,0.0,0.0,0.0,0.0,0.0,0.00300658502292,0.00152761750521,0.000596192668715,0.0,0.0,0.0,0.0,0.0,0.0,0.0,0.0,0.0,0.161109,-0.231367,9.814382,0.0,0.0,0.0,0.0,0.0,0.0,0.0,0.0,0.0
1659939421547248506,147870,1659939421547248506,imu,-0.0138236490463,-0.00502922357482,-0.281108806624,0.959563157106,0.0,0.0,0.0,0.0,0.0,0.0,0.0,0.0,0.0,-0.0030671416858,-0.00274246682625,-0.000601295240866,0.0,0.0,0.0,0.0,0.0,0.0,0.0,0.0,0.0,0.153807,-0.240712,9.795287,0.0,0.0,0.0,0.0,0.0,0.0,0.0,0.0,0.0
1659939421552171749,147871,1659939421552171749,imu,-0.0138181162715,-0.00503166209955,-0.281106692918,0.959563843231,0.0,0.0,0.0,0.0,0.0,0.0,0.0,0.0,0.0,-0.00122251152917,-0.00181628747766,0.000905948181413,0.0,0.0,0.0,0.0,0.0,0.0,0.0,0.0,0.0,0.163496,-0.214428,9.785913,0.0,0.0,0.0,0.0,0.0,0.0,0.0,0.0,0.0
1659939421557047919,147872,1659939421557047919,imu,-0.0138477922225,-0.00503661425535,-0.281108546858,0.959562846327,0.0,0.0,0.0,0.0,0.0,0.0,0.0,0.0,0.0,-0.00182359598569,-0.00300986673451,-0.00091776119056,0.0,0.0,0.0,0.0,0.0,0.0,0.0,0.0,0.0,0.182185,-0.276728,9.797187,0.0,0.0,0.0,0.0,0.0,0.0,0.0,0.0,0.0
1659939421562163848,147873,1659939421562163848,imu,-0.0138381016104,-0.00504759224457,-0.281110094596,0.959562475023,0.0,0.0,0.0,0.0,0.0,0.0,0.0,0.0,0.0,0.00120511825835,-0.00269444390997,-0.000628149310432,0.0,0.0,0.0,0.0,0.0,0.0,0.0,0.0,0.0,0.173124,-0.214669,9.807296,0.0,0.0,0.0,0.0,0.0,0.0,0.0,0.0,0.0
1659939421567133603,147874,1659939421567133603,imu,-0.0138414114757,-0.00505134688975,-0.281117202017,0.959560325333,0.0,0.0,0.0,0.0,0.0,0.0,0.0,0.0,0.0,0.000893090530447,-0.00141736393543,-0.00302415104254,0.0,0.0,0.0,0.0,0.0,0.0,0.0,0.0,0.0,0.17284,-0.240733,9.78325,0.0,0.0,0.0,0.0,0.0,0.0,0.0,0.0,0.0
1659939421572767389,147875,1659939421572767389,imu,-0.0138356523958,-0.00505513458111,-0.281115639064,0.959560846331,0.0,0.0,0.0,0.0,0.0,0.0,0.0,0.0,0.0,-0.000895431661799,0.00134743272257,0.000661239272553,0.0,0.0,0.0,0.0,0.0,0.0,0.0,0.0,0.0,0.182616,-0.21463,9.79532,0.0,0.0,0.0,0.0,0.0,0.0,0.0,0.0,0.0
1659939421577217401,147876,1659939421577217401,imu,-0.0138344648631,-0.00506180553121,-0.281113080022,0.959561577986,0.0,0.0,0.0,0.0,0.0,0.0,0.0,0.0,0.0,0.000613768235392,0.000397242280191,0.00123946105583,0.0,0.0,0.0,0.0,0.0,0.0,0.0,0.0,0.0,0.18488,-0.22893,9.79042,0.0,0.0,0.0,0.0,0.0,0.0,0.0,0.0,0.0
1659939421582199168,147877,1659939421582199168,imu,-0.0138342169892,-0.00506451334999,-0.281105920404,0.959563664724,0.0,0.0,0.0,0.0,0.0,0.0,0.0,0.0,0.0,-0.00179228548211,0.000702559654135,0.00305847673224,0.0,0.0,0.0,0.0,0.0,0.0,0.0,0.0,0.0,0.180248,-0.221917,9.811954,0.0,0.0,0.0,0.0,0.0,0.0,0.0,0.0,0.0
1659939421587078830,147878,1659939421587078830,imu,-0.0138489919878,-0.00506213013002,-0.28110533246,0.959563636411,0.0,0.0,0.0,0.0,0.0,0.0,0.0,0.0,0.0,-0.005375100618,0.00350675368614,0.000361174602861,0.0,0.0,0.0,0.0,0.0,0.0,0.0,0.0,0.0,0.192072,-0.236319,9.811758,0.0,0.0,0.0,0.0,0.0,0.0,0.0,0.0,0.0
1659939421592033361,147879,1659939421592033361,imu,-0.0138492938413,-0.00505584007536,-0.281103242392,0.959564277502,0.0,0.0,0.0,0.0,0.0,0.0,0.0,0.0,0.0,-0.0011156822477,0.00220976649979,0.000918915198547,0.0,0.0,0.0,0.0,0.0,0.0,0.0,0.0,0.0,0.170591,-0.231307,9.800022,0.0,0.0,0.0,0.0,0.0,0.0,0.0,0.0,0.0
1659939421597155155,147880,1659939421597155155,imu,-0.0138510029172,-0.00504302501223,-0.281101859467,0.959564725394,0.0,0.0,0.0,0.0,0.0,0.0,0.0,0.0,0.0,-0.00229793479291,0.00404230177466,0.000631071490577,0.0,0.0,0.0,0.0,0.0,0.0,0.0,0.0,0.0,0.168137,-0.231152,9.783361,0.0,0.0,0.0,0.0,0.0,0.0,0.0,0.0,0.0
1659939421602142650,147881,1659939421602142650,imu,-0.0138521279329,-0.00503584919909,-0.281098267192,0.95956579918,0.0,0.0,0.0,0.0,0.0,0.0,0.0,0.0,0.0,0.000420479215517,0.00151791883509,0.00149053030393,0.0,0.0,0.0,0.0,0.0,0.0,0.0,0.0,0.0,0.165743,-0.240807,9.797592,0.0,0.0,0.0,0.0,0.0,0.0,0.0,0.0,0.0
1659939421607090266,147882,1659939421607090266,imu,-0.0138573962329,-0.00502983277862,-0.281091003526,0.959567882481,0.0,0.0,0.0,0.0,0.0,0.0,0.0,0.0,0.0,0.000400809933524,-0.00189027309612,0.00295919657845,0.0,0.0,0.0,0.0,0.0,0.0,0.0,0.0,0.0,0.153776,-0.247914,9.799992,0.0,0.0,0.0,0.0,0.0,0.0,0.0,0.0,0.0
1659939421612171135,147883,1659939421612171135,imu,-0.0138464576122,-0.00502130332006,-0.281090435042,0.959568251586,0.0,0.0,0.0,0.0,0.0,0.0,0.0,0.0,0.0,0.00100544614091,0.000604762278565,0.000227638581038,0.0,0.0,0.0,0.0,0.0,0.0,0.0,0.0,0.0,0.151451,-0.221375,9.769252,0.0,0.0,0.0,0.0,0.0,0.0,0.0,0.0,0.0
1659939421617114281,147884,1659939421617114281,imu,-0.0138540972919,-0.00502496164694,-0.281087660022,0.95956893506,0.0,0.0,0.0,0.0,0.0,0.0,0.0,0.0,0.0,0.00219564343599,-0.000338347034562,0.00111426798258,0.0,0.0,0.0,0.0,0.0,0.0,0.0,0.0,0.0,0.179854,-0.255024,9.773554,0.0,0.0,0.0,0.0,0.0,0.0,0.0,0.0,0.0
1659939421622096887,147885,1659939421622096887,imu,-0.0138457941494,-0.00501624787917,-0.28107625825,0.959572440355,0.0,0.0,0.0,0.0,0.0,0.0,0.0,0.0,0.0,0.00188575375175,0.00025396567781,0.00473061081331,0.0,0.0,0.0,0.0,0.0,0.0,0.0,0.0,0.0,0.151539,-0.231246,9.807296,0.0,0.0,0.0,0.0,0.0,0.0,0.0,0.0,0.0
1659939421627058331,147886,1659939421627058331,imu,-0.0138539455676,-0.00502373112108,-0.281074391189,0.959572830449,0.0,0.0,0.0,0.0,0.0,0.0,0.0,0.0,0.0,0.000345760613306,-0.000938130183268,0.000763704484911,0.0,0.0,0.0,0.0,0.0,0.0,0.0,0.0,0.0,0.1848,-0.245724,9.799811,0.0,0.0,0.0,0.0,0.0,0.0,0.0,0.0,0.0
1659939421632138152,147887,1659939421632138152,imu,-0.0138541345239,-0.00502654917959,-0.28106969846,0.959574187527,0.0,0.0,0.0,0.0,0.0,0.0,0.0,0.0,0.0,-0.00295629859326,0.000313317473273,0.00199792644966,0.0,0.0,0.0,0.0,0.0,0.0,0.0,0.0,0.0,0.177819,-0.216967,9.792948,0.0,0.0,0.0,0.0,0.0,0.0,0.0,0.0,0.0
1659939421637078505,147888,1659939421637078505,imu,-0.0138597808933,-0.00504142367303,-0.281070034305,0.959573929584,0.0,0.0,0.0,0.0,0.0,0.0,0.0,0.0,0.0,0.00216198004464,-0.00308859955002,-0.000199090129981,0.0,0.0,0.0,0.0,0.0,0.0,0.0,0.0,0.0,0.187175,-0.245719,9.797413,0.0,0.0,0.0,0.0,0.0,0.0,0.0,0.0,0.0
1659939421642024864,147889,1659939421642024864,imu,-0.0138558053755,-0.00504954658972,-0.281066800334,0.959574891547,0.0,0.0,0.0,0.0,0.0,0.0,0.0,0.0,0.0,-0.000269145502533,-0.00428310590622,0.00132121993443,0.0,0.0,0.0,0.0,0.0,0.0,0.0,0.0,0.0,0.163413,-0.219103,9.773959,0.0,0.0,0.0,0.0,0.0,0.0,0.0,0.0,0.0
1659939421647169427,147890,1659939421647169427,imu,-0.0138700121298,-0.00503793637676,-0.281067082975,0.959574664541,0.0,0.0,0.0,0.0,0.0,0.0,0.0,0.0,0.0,-0.000833231919735,0.00253811342682,-0.000145844375977,0.0,0.0,0.0,0.0,0.0,0.0,0.0,0.0,0.0,0.170478,-0.262566,9.825975,0.0,0.0,0.0,0.0,0.0,0.0,0.0,0.0,0.0
1659939421652096300,147891,1659939421652096300,imu,-0.0138572989463,-0.00503733194622,-0.281061955907,0.959576353134,0.0,0.0,0.0,0.0,0.0,0.0,0.0,0.0,0.0,0.000986087192588,0.00248232167566,0.00225516724898,0.0,0.0,0.0,0.0,0.0,0.0,0.0,0.0,0.0,0.175597,-0.214864,9.828724,0.0,0.0,0.0,0.0,0.0,0.0,0.0,0.0,0.0
1659939421657052996,147892,1659939421657052996,imu,-0.0138649696313,-0.00504362494382,-0.281063953571,0.959575624153,0.0,0.0,0.0,0.0,0.0,0.0,0.0,0.0,0.0,-0.00264989416789,0.000967395510216,-0.000767599124499,0.0,0.0,0.0,0.0,0.0,0.0,0.0,0.0,0.0,0.192116,-0.231564,9.81418,0.0,0.0,0.0,0.0,0.0,0.0,0.0,0.0,0.0
1659939421662184987,147893,1659939421662184987,imu,-0.0138581419735,-0.00504976896663,-0.281066014802,0.959575086722,0.0,0.0,0.0,0.0,0.0,0.0,0.0,0.0,0.0,0.00249189515801,0.00123152077965,-0.000797694501728,0.0,0.0,0.0,0.0,0.0,0.0,0.0,0.0,0.0,0.184841,-0.22885,9.78089,0.0,0.0,0.0,0.0,0.0,0.0,0.0,0.0,0.0
1659939421667142171,147894,1659939421667142171,imu,-0.0138503834962,-0.00504756533328,-0.281065041532,0.959575495409,0.0,0.0,0.0,0.0,0.0,0.0,0.0,0.0,0.0,0.000962583723558,0.000604997504541,0.000424357207454,0.0,0.0,0.0,0.0,0.0,0.0,0.0,0.0,0.0,0.165862,-0.224094,9.79773,0.0,0.0,0.0,0.0,0.0,0.0,0.0,0.0,0.0
1659939421672095095,147895,1659939421672095095,imu,-0.0138586743182,-0.00504067399383,-0.281064020464,0.959575711006,0.0,0.0,0.0,0.0,0.0,0.0,0.0,0.0,0.0,-0.000837726364279,0.00307003477542,0.000452424915822,0.0,0.0,0.0,0.0,0.0,0.0,0.0,0.0,0.0,0.177608,-0.248026,9.795074,0.0,0.0,0.0,0.0,0.0,0.0,0.0,0.0,0.0
1659939421677023435,147896,1659939421677023435,imu,-0.0138556180295,-0.0050242841471,-0.281061458951,0.959576591373,0.0,0.0,0.0,0.0,0.0,0.0,0.0,0.0,0.0,0.000966415105286,0.00117841201931,0.00102355982132,0.0,0.0,0.0,0.0,0.0,0.0,0.0,0.0,0.0,0.144247,-0.240611,9.790584,0.0,0.0,0.0,0.0,0.0,0.0,0.0,0.0,0.0
1659939421682173236,147897,1659939421682173236,imu,-0.0138493617256,-0.00502001727199,-0.281060472731,0.959576992885,0.0,0.0,0.0,0.0,0.0,0.0,0.0,0.0,0.0,0.000652644785365,0.000865856530852,0.000409984495579,0.0,0.0,0.0,0.0,0.0,0.0,0.0,0.0,0.0,0.163372,-0.226286,9.776282,0.0,0.0,0.0,0.0,0.0,0.0,0.0,0.0,0.0
1659939421687113868,147898,1659939421687113868,imu,-0.013847329159,-0.00500922614487,-0.281060146932,0.959577174038,0.0,0.0,0.0,0.0,0.0,0.0,0.0,0.0,0.0,0.00125044295434,0.00147036930728,0.000104007441744,0.0,0.0,0.0,0.0,0.0,0.0,0.0,0.0,0.0,0.156144,-0.240627,9.783359,0.0,0.0,0.0,0.0,0.0,0.0,0.0,0.0,0.0
1659939421692050379,147899,1659939421692050379,imu,-0.0138404622489,-0.00499302964576,-0.281063274663,0.959576441403,0.0,0.0,0.0,0.0,0.0,0.0,0.0,0.0,0.0,0.000917417534312,-0.00129737643078,-0.00142369743667,0.0,0.0,0.0,0.0,0.0,0.0,0.0,0.0,0.0,0.130036,-0.233457,9.802649,0.0,0.0,0.0,0.0,0.0,0.0,0.0,0.0,0.0
1659939421697156461,147900,1659939421697156461,imu,-0.0138411063349,-0.00499168204538,-0.28106071942,0.95957718756,0.0,0.0,0.0,0.0,0.0,0.0,0.0,0.0,0.0,-0.000286945720959,-0.000987639970434,0.00101594174325,0.0,0.0,0.0,0.0,0.0,0.0,0.0,0.0,0.0,0.163487,-0.233789,9.81673,0.0,0.0,0.0,0.0,0.0,0.0,0.0,0.0,0.0
1659939421702101283,147901,1659939421702101283,imu,-0.0138343230491,-0.00500676539538,-0.281059094909,0.959577682616,0.0,0.0,0.0,0.0,0.0,0.0,0.0,0.0,0.0,0.00361669010856,-0.00253815651345,0.000662090518723,0.0,0.0,0.0,0.0,0.0,0.0,0.0,0.0,0.0,0.182485,-0.228895,9.788053,0.0,0.0,0.0,0.0,0.0,0.0,0.0,0.0,0.0
1659939421707097717,147902,1659939421707097717,imu,-0.013828308219,-0.00500617309527,-0.281060335018,0.959577409177,0.0,0.0,0.0,0.0,0.0,0.0,0.0,0.0,0.0,-0.000925725458554,-0.000936831121959,-0.000504678141935,0.0,0.0,0.0,0.0,0.0,0.0,0.0,0.0,0.0,0.161054,-0.216721,9.776378,0.0,0.0,0.0,0.0,0.0,0.0,0.0,0.0,0.0
1659939421712222375,147903,1659939421712222375,imu,-0.0138465168548,-0.00501634564841,-0.281062961668,0.959576324127,0.0,0.0,0.0,0.0,0.0,0.0,0.0,0.0,0.0,-0.00213000732659,-0.00245193321226,-0.00110499270292,0.0,0.0,0.0,0.0,0.0,0.0,0.0,0.0,0.0,0.187102,-0.250414,9.787843,0.0,0.0,0.0,0.0,0.0,0.0,0.0,0.0,0.0
1659939421717167407,147904,1659939421717167407,imu,-0.0138307590516,-0.00504177088493,-0.281062910089,0.959576433236,0.0,0.0,0.0,0.0,0.0,0.0,0.0,0.0,0.0,0.00330168706602,-0.00370187790909,6.14014844147e-05,0.0,0.0,0.0,0.0,0.0,0.0,0.0,0.0,0.0,0.192283,-0.20526,9.809634,0.0,0.0,0.0,0.0,0.0,0.0,0.0,0.0,0.0
1659939421722060060,147905,1659939421722060060,imu,-0.0138251899126,-0.00504546592824,-0.281057061134,0.959578207227,0.0,0.0,0.0,0.0,0.0,0.0,0.0,0.0,0.0,0.00149476362033,0.00063205736354,0.00252043617664,0.0,0.0,0.0,0.0,0.0,0.0,0.0,0.0,0.0,0.177683,-0.226377,9.776191,0.0,0.0,0.0,0.0,0.0,0.0,0.0,0.0,0.0
1659939421727013053,147906,1659939421727013053,imu,-0.0138231459822,-0.00505352738129,-0.281057023763,0.959578205197,0.0,0.0,0.0,0.0,0.0,0.0,0.0,0.0,0.0,-0.00093102022709,0.000967510654689,0.000102641973791,0.0,0.0,0.0,0.0,0.0,0.0,0.0,0.0,0.0,0.189737,-0.21945,9.795234,0.0,0.0,0.0,0.0,0.0,0.0,0.0,0.0,0.0
1659939421732133172,147907,1659939421732133172,imu,-0.013825039349,-0.00506255450873,-0.281060675823,0.959577060655,0.0,0.0,0.0,0.0,0.0,0.0,0.0,0.0,0.0,-0.00032049558472,0.00158028558378,-0.00140711389748,0.0,0.0,0.0,0.0,0.0,0.0,0.0,0.0,0.0,0.196786,-0.228966,9.785577,0.0,0.0,0.0,0.0,0.0,0.0,0.0,0.0,0.0
1659939421737129606,147908,1659939421737129606,imu,-0.0138115816001,-0.00506599933278,-0.281057677987,0.959578114334,0.0,0.0,0.0,0.0,0.0,0.0,0.0,0.0,0.0,0.00239334934007,0.000911000040072,0.00129663807505,0.0,0.0,0.0,0.0,0.0,0.0,0.0,0.0,0.0,0.1756,-0.217292,9.833469,0.0,0.0,0.0,0.0,0.0,0.0,0.0,0.0,0.0
1659939421742052359,147909,1659939421742052359,imu,-0.0138085503715,-0.00507740441764,-0.281054640733,0.959578987277,0.0,0.0,0.0,0.0,0.0,0.0,0.0,0.0,0.0,0.00144591798261,-0.00278097389539,0.00126347282433,0.0,0.0,0.0,0.0,0.0,0.0,0.0,0.0,0.0,0.177712,-0.226437,9.78334,0.0,0.0,0.0,0.0,0.0,0.0,0.0,0.0,0.0
1659939421747150059,147910,1659939421747150059,imu,-0.0138127911873,-0.00508240131351,-0.281053805938,0.959579144294,0.0,0.0,0.0,0.0,0.0,0.0,0.0,0.0,0.0,-0.000653569117513,0.00126383643167,0.00039172089028,0.0,0.0,0.0,0.0,0.0,0.0,0.0,0.0,0.0,0.189655,-0.233816,9.799879,0.0,0.0,0.0,0.0,0.0,0.0,0.0,0.0,0.0
1659939421752109269,147911,1659939421752109269,imu,-0.0138024606393,-0.00509056625017,-0.281052943728,0.959579502198,0.0,0.0,0.0,0.0,0.0,0.0,0.0,0.0,0.0,0.00233804508125,-0.00276478307394,0.000334706053142,0.0,0.0,0.0,0.0,0.0,0.0,0.0,0.0,0.0,0.168339,-0.219454,9.812051,0.0,0.0,0.0,0.0,0.0,0.0,0.0,0.0,0.0
1659939421757106051,147912,1659939421757106051,imu,-0.0138055497756,-0.0051054426446,-0.281049200049,0.959580475209,0.0,0.0,0.0,0.0,0.0,0.0,0.0,0.0,0.0,0.00383408963416,-0.000604487061457,0.00154234085881,0.0,0.0,0.0,0.0,0.0,0.0,0.0,0.0,0.0,0.199192,-0.248402,9.823526,0.0,0.0,0.0,0.0,0.0,0.0,0.0,0.0,0.0
1659939421762191251,147913,1659939421762191251,imu,-0.0137613641793,-0.0050935335308,-0.281050142722,0.959580897084,0.0,0.0,0.0,0.0,0.0,0.0,0.0,0.0,0.0,-0.0010093360754,0.00159891494558,-0.000229762201498,0.0,0.0,0.0,0.0,0.0,0.0,0.0,0.0,0.0,0.132898,-0.149665,9.774734,0.0,0.0,0.0,0.0,0.0,0.0,0.0,0.0,0.0
1659939421767158072,147914,1659939421767158072,imu,-0.0137812223817,-0.00509350530027,-0.281051273001,0.959580281195,0.0,0.0,0.0,0.0,0.0,0.0,0.0,0.0,0.0,0.0032128696268,0.00186496698899,-0.000559890635327,0.0,0.0,0.0,0.0,0.0,0.0,0.0,0.0,0.0,0.191723,-0.284051,9.808981,0.0,0.0,0.0,0.0,0.0,0.0,0.0,0.0,0.0
1659939421772085435,147915,1659939421772085435,imu,-0.0137995181769,-0.00509160605829,-0.281057361876,0.95957824495,0.0,0.0,0.0,0.0,0.0,0.0,0.0,0.0,0.0,-0.00225838796602,-0.00148328237605,-0.00264887480333,0.0,0.0,0.0,0.0,0.0,0.0,0.0,0.0,0.0,0.170226,-0.254783,9.752172,0.0,0.0,0.0,0.0,0.0,0.0,0.0,0.0,0.0
1659939421777016779,147916,1659939421777016779,imu,-0.0137762341944,-0.00508971674333,-0.281055093261,0.959579254,0.0,0.0,0.0,0.0,0.0,0.0,0.0,0.0,0.0,0.0050032013609,0.00030067080634,0.000955267512596,0.0,0.0,0.0,0.0,0.0,0.0,0.0,0.0,0.0,0.15623,-0.211735,9.755004,0.0,0.0,0.0,0.0,0.0,0.0,0.0,0.0,0.0
1659939421782161132,147917,1659939421782161132,imu,-0.0138137060195,-0.00508740683308,-0.281054496832,0.959578902242,0.0,0.0,0.0,0.0,0.0,0.0,0.0,0.0,0.0,-0.00137994529193,-0.00211305116162,7.18588497254e-05,0.0,0.0,0.0,0.0,0.0,0.0,0.0,0.0,0.0,0.17724,-0.295718,9.787529,0.0,0.0,0.0,0.0,0.0,0.0,0.0,0.0,0.0
1659939421787203729,147918,1659939421787203729,imu,-0.0138223501013,-0.00508508610422,-0.281052690667,0.95957931908,0.0,0.0,0.0,0.0,0.0,0.0,0.0,0.0,0.0,0.00255805053131,2.95308955168e-05,0.00065986215814,0.0,0.0,0.0,0.0,0.0,0.0,0.0,0.0,0.0,0.172853,-0.262561,9.823578,0.0,0.0,0.0,0.0,0.0,0.0,0.0,0.0,0.0
1659939421792090585,147919,1659939421792090585,imu,-0.0138238060896,-0.00508558936232,-0.281049695286,0.959580172756,0.0,0.0,0.0,0.0,0.0,0.0,0.0,0.0,0.0,-0.00107903263194,-0.000566466929227,0.00128041339481,0.0,0.0,0.0,0.0,0.0,0.0,0.0,0.0,0.0,0.170491,-0.228679,9.77145,0.0,0.0,0.0,0.0,0.0,0.0,0.0,0.0,0.0
1659939421797794838,147920,1659939421797794838,imu,-0.0138330620372,-0.00508611830221,-0.281045366249,0.959581304479,0.0,0.0,0.0,0.0,0.0,0.0,0.0,0.0,0.0,0.00255791274045,0.00217976452063,0.00156150368281,0.0,0.0,0.0,0.0,0.0,0.0,0.0,0.0,0.0,0.189266,-0.262087,9.754373,0.0,0.0,0.0,0.0,0.0,0.0,0.0,0.0,0.0
1659939421802107197,147921,1659939421802107197,imu,-0.013819453192,-0.00510212431254,-0.281046854335,0.959580979756,0.0,0.0,0.0,0.0,0.0,0.0,0.0,0.0,0.0,-0.00170008127093,-0.00056473366772,-0.000553567038579,0.0,0.0,0.0,0.0,0.0,0.0,0.0,0.0,0.0,0.192395,-0.190954,9.812134,0.0,0.0,0.0,0.0,0.0,0.0,0.0,0.0,0.0
1659939421807955459,147922,1659939421807955459,imu,-0.0138316800999,-0.00513063030503,-0.281049435856,0.959579895508,0.0,0.0,0.0,0.0,0.0,0.0,0.0,0.0,0.0,0.00313591375648,0.000641199982966,-0.000878349415366,0.0,0.0,0.0,0.0,0.0,0.0,0.0,0.0,0.0,0.237404,-0.258435,9.851791,0.0,0.0,0.0,0.0,0.0,0.0,0.0,0.0,0.0
1659939421812100065,147923,1659939421812100065,imu,-0.0138242541902,-0.00514276814292,-0.28105135034,0.959579376812,0.0,0.0,0.0,0.0,0.0,0.0,0.0,0.0,0.0,-0.000205952046883,0.000349135529516,-0.000845928578087,0.0,0.0,0.0,0.0,0.0,0.0,0.0,0.0,0.0,0.192034,-0.209595,9.757174,0.0,0.0,0.0,0.0,0.0,0.0,0.0,0.0,0.0
1659939421817238481,147924,1659939421817238481,imu,-0.013804154514,-0.00514349674757,-0.281051356703,0.959579660401,0.0,0.0,0.0,0.0,0.0,0.0,0.0,0.0,0.0,-0.00201866336789,-0.00180125898419,6.58815380672e-05,0.0,0.0,0.0,0.0,0.0,0.0,0.0,0.0,0.0,0.154224,-0.183429,9.798144,0.0,0.0,0.0,0.0,0.0,0.0,0.0,0.0,0.0
1659939421822097332,147925,1659939421822097332,imu,-0.0138533545497,-0.00515800410225,-0.281053734564,0.959578177039,0.0,0.0,0.0,0.0,0.0,0.0,0.0,0.0,0.0,-0.00230413799144,-0.00207938705504,-0.00114152584741,0.0,0.0,0.0,0.0,0.0,0.0,0.0,0.0,0.0,0.217846,-0.305787,9.818163,0.0,0.0,0.0,0.0,0.0,0.0,0.0,0.0,0.0
1659939421829714550,147926,1659939421829714550,imu,-0.0138183593466,-0.00514825161621,-0.28105609032,0.959578044009,0.0,0.0,0.0,0.0,0.0,0.0,0.0,0.0,0.0,-0.00164979985097,0.0028512354694,-0.000495047058791,0.0,0.0,0.0,0.0,0.0,0.0,0.0,0.0,0.0,0.156789,-0.159588,9.800709,0.0,0.0,0.0,0.0,0.0,0.0,0.0,0.0,0.0
1659939421832151099,147927,1659939421832151099,imu,-0.0138415327254,-0.00514489210691,-0.281054339882,0.959578240734,0.0,0.0,0.0,0.0,0.0,0.0,0.0,0.0,0.0,-0.000745588299525,-0.000578531596484,0.00128812967673,0.0,0.0,0.0,0.0,0.0,0.0,0.0,0.0,0.0,0.177236,-0.273909,9.749584,0.0,0.0,0.0,0.0,0.0,0.0,0.0,0.0,0.0
1659939421837104861,147928,1659939421837104861,imu,-0.0138244794216,-0.00511965488788,-0.281053434328,0.959578886781,0.0,0.0,0.0,0.0,0.0,0.0,0.0,0.0,0.0,-0.00192958928439,0.00190131291205,0.000397694737665,0.0,0.0,0.0,0.0,0.0,0.0,0.0,0.0,0.0,0.125508,-0.204856,9.812448,0.0,0.0,0.0,0.0,0.0,0.0,0.0,0.0,0.0
1659939421842065118,147929,1659939421842065118,imu,-0.0138330904027,-0.00512107795153,-0.281052373654,0.959579065754,0.0,0.0,0.0,0.0,0.0,0.0,0.0,0.0,0.0,0.00167461725538,-0.00244502732749,0.000333639543178,0.0,0.0,0.0,0.0,0.0,0.0,0.0,0.0,0.0,0.167987,-0.255068,9.787928,0.0,0.0,0.0,0.0,0.0,0.0,0.0,0.0,0.0
1659939421846994296,147930,1659939421846994296,imu,-0.0138209450834,-0.00511497975921,-0.281052258769,0.959579306936,0.0,0.0,0.0,0.0,0.0,0.0,0.0,0.0,0.0,0.00197725167517,0.000961169937386,5.12166227715e-05,0.0,0.0,0.0,0.0,0.0,0.0,0.0,0.0,0.0,0.158635,-0.221481,9.776353,0.0,0.0,0.0,0.0,0.0,0.0,0.0,0.0,0.0
1659939421852115532,147931,1659939421852115532,imu,-0.0138216995356,-0.00511034082312,-0.281058008363,0.959577636762,0.0,0.0,0.0,0.0,0.0,0.0,0.0,0.0,0.0,-0.000458627074471,0.000371112866946,-0.00234867593706,0.0,0.0,0.0,0.0,0.0,0.0,0.0,0.0,0.0,0.165804,-0.233664,9.800035,0.0,0.0,0.0,0.0,0.0,0.0,0.0,0.0,0.0
1659939421857076138,147932,1659939421857076138,imu,-0.0138071240238,-0.00511107550902,-0.281060689292,0.959577057441,0.0,0.0,0.0,0.0,0.0,0.0,0.0,0.0,0.0,0.00163879711591,-0.00242230583457,-0.00115527892305,0.0,0.0,0.0,0.0,0.0,0.0,0.0,0.0,0.0,0.15406,-0.21216,9.80744,0.0,0.0,0.0,0.0,0.0,0.0,0.0,0.0,0.0
1659939421862013907,147933,1659939421862013907,imu,-0.0138025494151,-0.00510931463684,-0.281063991836,0.959576165308,0.0,0.0,0.0,0.0,0.0,0.0,0.0,0.0,0.0,-0.00048216105265,-0.00207452072406,-0.00142668310094,0.0,0.0,0.0,0.0,0.0,0.0,0.0,0.0,0.0,0.156328,-0.221626,9.795431,0.0,0.0,0.0,0.0,0.0,0.0,0.0,0.0,0.0
1659939421867132978,147934,1659939421867132978,imu,-0.0138163338981,-0.00510368622857,-0.281061377131,0.95957676274,0.0,0.0,0.0,0.0,0.0,0.0,0.0,0.0,0.0,-0.00437618787212,-0.00112443743201,0.00103873128742,0.0,0.0,0.0,0.0,0.0,0.0,0.0,0.0,0.0,0.163287,-0.238224,9.776183,0.0,0.0,0.0,0.0,0.0,0.0,0.0,0.0,0.0
1659939421872115444,147935,1659939421872115444,imu,-0.0138285003019,-0.00510734893544,-0.281060941487,0.959576695599,0.0,0.0,0.0,0.0,0.0,0.0,0.0,0.0,0.0,-0.00104360417089,-0.00420199595913,7.45737236731e-05,0.0,0.0,0.0,0.0,0.0,0.0,0.0,0.0,0.0,0.16578,-0.24815,9.818977,0.0,0.0,0.0,0.0,0.0,0.0,0.0,0.0,0.0
1659939421877386206,147936,1659939421877386206,imu,-0.0138151927167,-0.0051177056435,-0.281056268748,0.95957820074,0.0,0.0,0.0,0.0,0.0,0.0,0.0,0.0,0.0,0.000790345764645,-0.00172653917077,0.00188814958016,0.0,0.0,0.0,0.0,0.0,0.0,0.0,0.0,0.0,0.175489,-0.204953,9.785913,0.0,0.0,0.0,0.0,0.0,0.0,0.0,0.0,0.0
1659939421882138901,147937,1659939421882138901,imu,-0.0138171059293,-0.00512708259173,-0.281053373994,0.959578970994,0.0,0.0,0.0,0.0,0.0,0.0,0.0,0.0,0.0,0.00138775181312,-0.000786380671588,0.0012679499717,0.0,0.0,0.0,0.0,0.0,0.0,0.0,0.0,0.0,0.187165,-0.236008,9.778432,0.0,0.0,0.0,0.0,0.0,0.0,0.0,0.0,0.0
1659939421887100066,147938,1659939421887100066,imu,-0.0137984473711,-0.00512503992718,-0.281046265378,0.959581332422,0.0,0.0,0.0,0.0,0.0,0.0,0.0,0.0,0.0,-0.00191964735012,0.00107371432741,0.00310509991668,0.0,0.0,0.0,0.0,0.0,0.0,0.0,0.0,0.0,0.163712,-0.188224,9.793278,0.0,0.0,0.0,0.0,0.0,0.0,0.0,0.0,0.0
1659939421892070449,147939,1659939421892070449,imu,-0.0138132067057,-0.00513484838416,-0.281047030949,0.959580843414,0.0,0.0,0.0,0.0,0.0,0.0,0.0,0.0,0.0,-0.00371202514757,0.00140775755308,-0.000228388567549,0.0,0.0,0.0,0.0,0.0,0.0,0.0,0.0,0.0,0.206452,-0.23655,9.828344,0.0,0.0,0.0,0.0,0.0,0.0,0.0,0.0,0.0
1659939421897180092,147940,1659939421897180092,imu,-0.0137991220194,-0.00514814084653,-0.281050888775,0.95957984493,0.0,0.0,0.0,0.0,0.0,0.0,0.0,0.0,0.0,0.000522555057215,-0.000469125815596,-0.00147957501792,0.0,0.0,0.0,0.0,0.0,0.0,0.0,0.0,0.0,0.187488,-0.200334,9.795407,0.0,0.0,0.0,0.0,0.0,0.0,0.0,0.0,0.0
1659939421902155085,147941,1659939421902155085,imu,-0.0137848803609,-0.00516102093928,-0.281050311458,0.959580149527,0.0,0.0,0.0,0.0,0.0,0.0,0.0,0.0,0.0,0.00173223365127,0.000743333459473,0.000345153521054,0.0,0.0,0.0,0.0,0.0,0.0,0.0,0.0,0.0,0.192068,-0.204819,9.757215,0.0,0.0,0.0,0.0,0.0,0.0,0.0,0.0,0.0
1659939421907071413,147942,1659939421907071413,imu,-0.0137736520495,-0.00516903851415,-0.281048250764,0.959580871158,0.0,0.0,0.0,0.0,0.0,0.0,0.0,0.0,0.0,-0.00099949542378,-0.000787930962541,0.00095497700014,0.0,0.0,0.0,0.0,0.0,0.0,0.0,0.0,0.0,0.177879,-0.200133,9.77879,0.0,0.0,0.0,0.0,0.0,0.0,0.0,0.0,0.0
1659939421912020356,147943,1659939421912020356,imu,-0.0137738449495,-0.00516262168325,-0.281049598199,0.959580508287,0.0,0.0,0.0,0.0,0.0,0.0,0.0,0.0,0.0,-0.00128187436064,0.0013853224995,-0.000544865784908,0.0,0.0,0.0,0.0,0.0,0.0,0.0,0.0,0.0,0.16835,-0.229165,9.831035,0.0,0.0,0.0,0.0,0.0,0.0,0.0,0.0,0.0
1659939421917138729,147944,1659939421917138729,imu,-0.0137679342375,-0.00513223474583,-0.281053807158,0.959579523351,0.0,0.0,0.0,0.0,0.0,0.0,0.0,0.0,0.0,-0.00156065196396,0.00353452807313,-0.00172802299958,0.0,0.0,0.0,0.0,0.0,0.0,0.0,0.0,0.0,0.13006,-0.228662,9.800305,0.0,0.0,0.0,0.0,0.0,0.0,0.0,0.0,0.0
1659939421922105271,147945,1659939421922105271,imu,-0.0137867634181,-0.00510460183811,-0.281052631877,0.959579744633,0.0,0.0,0.0,0.0,0.0,0.0,0.0,0.0,0.0,-2.8575108487e-05,0.00470268295569,0.000398561807942,0.0,0.0,0.0,0.0,0.0,0.0,0.0,0.0,0.0,0.153548,-0.281361,9.802099,0.0,0.0,0.0,0.0,0.0,0.0,0.0,0.0,0.0
1659939421927027187,147946,1659939421927027187,imu,-0.0137595031588,-0.0050850768265,-0.281052588503,0.959580252278,0.0,0.0,0.0,0.0,0.0,0.0,0.0,0.0,0.0,0.00146611600243,0.00311107324844,6.97182307222e-05,0.0,0.0,0.0,0.0,0.0,0.0,0.0,0.0,0.0,0.135022,-0.197593,9.793385,0.0,0.0,0.0,0.0,0.0,0.0,0.0,0.0,0.0
1659939421932137738,147947,1659939421932137738,imu,-0.0137807043748,-0.00506823077187,-0.281047685101,0.959581473312,0.0,0.0,0.0,0.0,0.0,0.0,0.0,0.0,0.0,-0.0024718084749,1.77170680189e-05,0.00188721308429,0.0,0.0,0.0,0.0,0.0,0.0,0.0,0.0,0.0,0.151099,-0.26668,9.761727,0.0,0.0,0.0,0.0,0.0,0.0,0.0,0.0,0.0
1659939421939973762,147948,1659939421939973762,imu,-0.0137647321952,-0.00503946535988,-0.281047283296,0.95958197174,0.0,0.0,0.0,0.0,0.0,0.0,0.0,0.0,0.0,0.00206192287741,0.000309205359298,2.49910436021e-05,0.0,0.0,0.0,0.0,0.0,0.0,0.0,0.0,0.0,0.111072,-0.233576,9.831365,0.0,0.0,0.0,0.0,0.0,0.0,0.0,0.0,0.0
1659939421942065724,147949,1659939421942065724,imu,-0.0137768617624,-0.00502659528979,-0.281046967429,0.959581957687,0.0,0.0,0.0,0.0,0.0,0.0,0.0,0.0,0.0,0.00053029340084,-0.000913594334088,2.74193409033e-05,0.0,0.0,0.0,0.0,0.0,0.0,0.0,0.0,0.0,0.151289,-0.262225,9.79989,0.0,0.0,0.0,0.0,0.0,0.0,0.0,0.0,0.0
1659939421947196808,147950,1659939421947196808,imu,-0.013767769319,-0.00503369313267,-0.281044594889,0.959582745856,0.0,0.0,0.0,0.0,0.0,0.0,0.0,0.0,0.0,0.00231449976178,-0.00399730452193,0.000895437374649,0.0,0.0,0.0,0.0,0.0,0.0,0.0,0.0,0.0,0.158645,-0.221501,9.778735,0.0,0.0,0.0,0.0,0.0,0.0,0.0,0.0,0.0
1659939421952170613,147951,1659939421952170613,imu,-0.0137841133922,-0.00503841760496,-0.281043680748,0.959582754158,0.0,0.0,0.0,0.0,0.0,0.0,0.0,0.0,0.0,0.00231443918698,0.000350937161886,0.000314867075989,0.0,0.0,0.0,0.0,0.0,0.0,0.0,0.0,0.0,0.189186,-0.26919,9.747165,0.0,0.0,0.0,0.0,0.0,0.0,0.0,0.0,0.0
1659939421957082123,147952,1659939421957082123,imu,-0.0137632011444,-0.00505832892039,-0.281043843302,0.959582901966,0.0,0.0,0.0,0.0,0.0,0.0,0.0,0.0,0.0,0.00196508909272,-0.00395189045086,-1.94463011633e-05,0.0,0.0,0.0,0.0,0.0,0.0,0.0,0.0,0.0,0.178084,-0.190863,9.812227,0.0,0.0,0.0,0.0,0.0,0.0,0.0,0.0,0.0
1659939421962010882,147953,1659939421962010882,imu,-0.0137681273181,-0.00508182006022,-0.281046657251,0.959581883022,0.0,0.0,0.0,0.0,0.0,0.0,0.0,0.0,0.0,0.0028447112449,-0.00390903674575,-0.00123317109348,0.0,0.0,0.0,0.0,0.0,0.0,0.0,0.0,0.0,0.199135,-0.241019,9.797376,0.0,0.0,0.0,0.0,0.0,0.0,0.0,0.0,0.0
1659939421967126322,147954,1659939421967126322,imu,-0.0137572559659,-0.00510759776455,-0.281043988838,0.959582683614,0.0,0.0,0.0,0.0,0.0,0.0,0.0,0.0,0.0,0.00134312892569,0.000425000336657,0.00123645941322,0.0,0.0,0.0,0.0,0.0,0.0,0.0,0.0,0.0,0.216093,-0.202903,9.795202,0.0,0.0,0.0,0.0,0.0,0.0,0.0,0.0,0.0
1659939421972106134,147955,1659939421972106134,imu,-0.01377523534,-0.00514117860379,-0.281047020733,0.959581358359,0.0,0.0,0.0,0.0,0.0,0.0,0.0,0.0,0.0,-0.000490084045331,-0.00108581927329,-0.00118684506469,0.0,0.0,0.0,0.0,0.0,0.0,0.0,0.0,0.0,0.239666,-0.243664,9.797093,0.0,0.0,0.0,0.0,0.0,0.0,0.0,0.0,0.0
1659939421977097329,147956,1659939421977097329,imu,-0.0137739948467,-0.00515673175654,-0.281042113791,0.959582729867,0.0,0.0,0.0,0.0,0.0,0.0,0.0,0.0,0.0,-0.00257867771738,-0.000471828698147,0.00216490394307,0.0,0.0,0.0,0.0,0.0,0.0,0.0,0.0,0.0,0.199461,-0.207773,9.819098,0.0,0.0,0.0,0.0,0.0,0.0,0.0,0.0,0.0
1659939421982212978,147957,1659939421982212978,imu,-0.0137909039985,-0.00517196531756,-0.28103842714,0.959583484754,0.0,0.0,0.0,0.0,0.0,0.0,0.0,0.0,0.0,-0.00165206280873,-0.000468406318135,0.00153276176964,0.0,0.0,0.0,0.0,0.0,0.0,0.0,0.0,0.0,0.208642,-0.245855,9.797275,0.0,0.0,0.0,0.0,0.0,0.0,0.0,0.0,0.0
1659939421987131960,147958,1659939421987131960,imu,-0.0137918410412,-0.00517123577434,-0.281037888361,0.959583633013,0.0,0.0,0.0,0.0,0.0,0.0,0.0,0.0,0.0,-0.00131146176568,0.00415459644581,0.000342305711901,0.0,0.0,0.0,0.0,0.0,0.0,0.0,0.0,0.0,0.192033,-0.226548,9.785627,0.0,0.0,0.0,0.0,0.0,0.0,0.0,0.0,0.0
1659939421992079786,147959,1659939421992079786,imu,-0.0137919273734,-0.0051714267668,-0.281037910888,0.959583624145,0.0,0.0,0.0,0.0,0.0,0.0,0.0,0.0,0.0,0.00410815945041,0.00285016322133,-1.43297488536e-05,0.0,0.0,0.0,0.0,0.0,0.0,0.0,0.0,0.0,0.187083,-0.250374,9.783079,0.0,0.0,0.0,0.0,0.0,0.0,0.0,0.0,0.0
1659939421996982286,147960,1659939421996982286,imu,-0.0137942028885,-0.00516028883002,-0.281037179658,0.959583865556,0.0,0.0,0.0,0.0,0.0,0.0,0.0,0.0,0.0,-0.00255668279846,0.00163322850419,0.000330265621156,0.0,0.0,0.0,0.0,0.0,0.0,0.0,0.0,0.0,0.16096,-0.228639,9.773895,0.0,0.0,0.0,0.0,0.0,0.0,0.0,0.0,0.0
1659939422003253773,147961,1659939422003253773,imu,-0.0138061945732,-0.00513983921929,-0.28104158458,0.959582512753,0.0,0.0,0.0,0.0,0.0,0.0,0.0,0.0,0.0,-0.00434232738748,0.00133526971651,-0.0014714448912,0.0,0.0,0.0,0.0,0.0,0.0,0.0,0.0,0.0,0.149005,-0.238194,9.783425,0.0,0.0,0.0,0.0,0.0,0.0,0.0,0.0,0.0
1659939422007215958,147962,1659939422007215958,imu,-0.0137971469356,-0.00511785218378,-0.281044381819,0.959581941146,0.0,0.0,0.0,0.0,0.0,0.0,0.0,0.0,0.0,-7.19320389021e-05,0.00406085959651,-0.00146925754299,0.0,0.0,0.0,0.0,0.0,0.0,0.0,0.0,0.0,0.142013,-0.22637,9.802631,0.0,0.0,0.0,0.0,0.0,0.0,0.0,0.0,0.0
1659939422012171606,147963,1659939422012171606,imu,-0.0138047482402,-0.00510699139311,-0.281042606366,0.959582409682,0.0,0.0,0.0,0.0,0.0,0.0,0.0,0.0,0.0,0.00231244400386,-0.000930217295908,0.0006022121808,0.0,0.0,0.0,0.0,0.0,0.0,0.0,0.0,0.0,0.151162,-0.261965,9.768916,0.0,0.0,0.0,0.0,0.0,0.0,0.0,0.0,0.0
1659939422017145691,147964,1659939422017145691,imu,-0.0137971209407,-0.00509220488477,-0.281045179912,0.959581844217,0.0,0.0,0.0,0.0,0.0,0.0,0.0,0.0,0.0,0.00167073997033,-0.00305485921166,-0.00122526766245,0.0,0.0,0.0,0.0,0.0,0.0,0.0,0.0,0.0,0.125227,-0.233347,9.793149,0.0,0.0,0.0,0.0,0.0,0.0,0.0,0.0,0.0
1659939422022091561,147965,1659939422022091561,imu,-0.0138044249241,-0.00507098876066,-0.281044059184,0.959582179765,0.0,0.0,0.0,0.0,0.0,0.0,0.0,0.0,0.0,0.00197984086155,0.000650933382538,0.000320457649451,0.0,0.0,0.0,0.0,0.0,0.0,0.0,0.0,0.0,0.139427,-0.267125,9.823754,0.0,0.0,0.0,0.0,0.0,0.0,0.0,0.0,0.0
1659939422027054123,147966,1659939422027054123,imu,-0.0138119393578,-0.00507398974597,-0.281045286271,0.959581696378,0.0,0.0,0.0,0.0,0.0,0.0,0.0,0.0,0.0,0.00103771954452,-0.00241669827985,-0.000603532025847,0.0,0.0,0.0,0.0,0.0,0.0,0.0,0.0,0.0,0.170719,-0.250948,9.864197,0.0,0.0,0.0,0.0,0.0,0.0,0.0,0.0,0.0
1659939422032179759,147967,1659939422032179759,imu,-0.0137821557123,-0.00508255725238,-0.281045355496,0.959582058997,0.0,0.0,0.0,0.0,0.0,0.0,0.0,0.0,0.0,0.00493925352133,-0.0024228727989,-2.47058250229e-05,0.0,0.0,0.0,0.0,0.0,0.0,0.0,0.0,0.0,0.158812,-0.195197,9.774188,0.0,0.0,0.0,0.0,0.0,0.0,0.0,0.0,0.0
1659939422037125279,147968,1659939422037125279,imu,-0.0137865192278,-0.005108229011,-0.281049649934,0.959580602219,0.0,0.0,0.0,0.0,0.0,0.0,0.0,0.0,0.0,0.00277433605513,-0.00329309634009,-0.00182506102538,0.0,0.0,0.0,0.0,0.0,0.0,0.0,0.0,0.0,0.206298,-0.238657,9.794968,0.0,0.0,0.0,0.0,0.0,0.0,0.0,0.0,0.0
1659939422042047963,147969,1659939422042047963,imu,-0.013783812269,-0.0051195389287,-0.281051801576,0.959579950641,0.0,0.0,0.0,0.0,0.0,0.0,0.0,0.0,0.0,0.000358391658433,-0.000484678222989,-0.000862370694438,0.0,0.0,0.0,0.0,0.0,0.0,0.0,0.0,0.0,0.189799,-0.221998,9.814275,0.0,0.0,0.0,0.0,0.0,0.0,0.0,0.0,0.0
1659939422049809748,147970,1659939422049809748,imu,-0.0137558732252,-0.00514722395351,-0.281053268093,0.959579773928,0.0,0.0,0.0,0.0,0.0,0.0,0.0,0.0,0.0,0.00307584952407,0.00164953377666,-0.000255608166603,0.0,0.0,0.0,0.0,0.0,0.0,0.0,0.0,0.0,0.220914,-0.18608,9.77863,0.0,0.0,0.0,0.0,0.0,0.0,0.0,0.0,0.0
1659939422052128688,147971,1659939422052128688,imu,-0.0137440351355,-0.00516827290365,-0.281054156563,0.959579570193,0.0,0.0,0.0,0.0,0.0,0.0,0.0,0.0,0.0,0.0018165021066,-0.00266035318769,-0.000577167057415,0.0,0.0,0.0,0.0,0.0,0.0,0.0,0.0,0.0,0.199355,-0.20029,9.781034,0.0,0.0,0.0,0.0,0.0,0.0,0.0,0.0,0.0
1659939422057073301,147972,1659939422057073301,imu,-0.0137530199075,-0.00517505904728,-0.28105563474,0.959578971939,0.0,0.0,0.0,0.0,0.0,0.0,0.0,0.0,0.0,-0.0023758483786,0.00384936189545,-0.000490686300774,0.0,0.0,0.0,0.0,0.0,0.0,0.0,0.0,0.0,0.208656,-0.231349,9.775949,0.0,0.0,0.0,0.0,0.0,0.0,0.0,0.0,0.0
1659939422062044452,147973,1659939422062044452,imu,-0.0137391064822,-0.00517020445273,-0.281054267577,0.959579597853,0.0,0.0,0.0,0.0,0.0,0.0,0.0,0.0,0.0,-0.00325841267184,0.00257790782809,0.000719033911256,0.0,0.0,0.0,0.0,0.0,0.0,0.0,0.0,0.0,0.168387,-0.190482,9.774166,0.0,0.0,0.0,0.0,0.0,0.0,0.0,0.0,0.0
1659939422067146622,147974,1659939422067146622,imu,-0.0137662687837,-0.00516837273711,-0.281048803806,0.959580818715,0.0,0.0,0.0,0.0,0.0,0.0,0.0,0.0,0.0,-0.00202225926679,0.00191782548509,0.00220645627709,0.0,0.0,0.0,0.0,0.0,0.0,0.0,0.0,0.0,0.194154,-0.272048,9.799532,0.0,0.0,0.0,0.0,0.0,0.0,0.0,0.0,0.0
1659939422072086556,147975,1659939422072086556,imu,-0.013752099273,-0.00514488574578,-0.281046633478,0.959581783762,0.0,0.0,0.0,0.0,0.0,0.0,0.0,0.0,0.0,-0.00108341142027,0.00528341800477,0.000995457545363,0.0,0.0,0.0,0.0,0.0,0.0,0.0,0.0,0.0,0.147022,-0.212355,9.836077,0.0,0.0,0.0,0.0,0.0,0.0,0.0,0.0,0.0
1659939422077032915,147976,1659939422077032915,imu,-0.0137661370219,-0.00512778903039,-0.281044117473,0.959582410888,0.0,0.0,0.0,0.0,0.0,0.0,0.0,0.0,0.0,0.00101186313641,0.00152791843117,0.000941735871856,0.0,0.0,0.0,0.0,0.0,0.0,0.0,0.0,0.0,0.156148,-0.272126,9.837903,0.0,0.0,0.0,0.0,0.0,0.0,0.0,0.0,0.0
1659939422082152964,147977,1659939422082152964,imu,-0.013784370326,-0.00510846021679,-0.281037029767,0.959584328065,0.0,0.0,0.0,0.0,0.0,0.0,0.0,0.0,0.0,-0.000202032118402,0.000584424281426,0.00274522324858,0.0,0.0,0.0,0.0,0.0,0.0,0.0,0.0,0.0,0.148722,-0.273948,9.775979,0.0,0.0,0.0,0.0,0.0,0.0,0.0,0.0,0.0
1659939422087133404,147978,1659939422087133404,imu,-0.0137934094239,-0.00508961731332,-0.281040381626,0.959583316626,0.0,0.0,0.0,0.0,0.0,0.0,0.0,0.0,0.0,-0.00322766516845,-0.000906183773364,-0.00149403030768,0.0,0.0,0.0,0.0,0.0,0.0,0.0,0.0,0.0,0.137104,-0.243013,9.797757,0.0,0.0,0.0,0.0,0.0,0.0,0.0,0.0,0.0
1659939422092120410,147979,1659939422092120410,imu,-0.0138008797393,-0.00508161716298,-0.281042240816,0.959582707098,0.0,0.0,0.0,0.0,0.0,0.0,0.0,0.0,0.0,0.00100849913512,-0.00246644799706,-0.0009200011804,0.0,0.0,0.0,0.0,0.0,0.0,0.0,0.0,0.0,0.148994,-0.255127,9.809497,0.0,0.0,0.0,0.0,0.0,0.0,0.0,0.0,0.0
1659939422097000002,147980,1659939422097000002,imu,-0.0137839460777,-0.00508402783061,-0.281041480787,0.959583160319,0.0,0.0,0.0,0.0,0.0,0.0,0.0,0.0,0.0,0.00189689236393,-0.00368659719458,0.000279895433837,0.0,0.0,0.0,0.0,0.0,0.0,0.0,0.0,0.0,0.149245,-0.207194,9.788446,0.0,0.0,0.0,0.0,0.0,0.0,0.0,0.0,0.0
1659939422102117607,147981,1659939422102117607,imu,-0.0138040361603,-0.00508593359549,-0.281041178185,0.959582950051,0.0,0.0,0.0,0.0,0.0,0.0,0.0,0.0,0.0,0.000983540286152,-0.00210447447331,-6.1887840571e-06,0.0,0.0,0.0,0.0,0.0,0.0,0.0,0.0,0.0,0.174848,-0.271467,9.744855,0.0,0.0,0.0,0.0,0.0,0.0,0.0,0.0,0.0
1659939422107062499,147982,1659939422107062499,imu,-0.013791679202,-0.00509263475716,-0.281040481255,0.959583296307,0.0,0.0,0.0,0.0,0.0,0.0,0.0,0.0,0.0,0.0015743145668,-0.0023970910515,0.000288596906191,0.0,0.0,0.0,0.0,0.0,0.0,0.0,0.0,0.0,0.165917,-0.212096,9.790681,0.0,0.0,0.0,0.0,0.0,0.0,0.0,0.0,0.0
1659939422112047060,147983,1659939422112047060,imu,-0.0137908672631,-0.00511206062155,-0.281036901506,0.959584253106,0.0,0.0,0.0,0.0,0.0,0.0,0.0,0.0,0.0,0.00457317932887,-0.00178737019073,0.00147355654423,0.0,0.0,0.0,0.0,0.0,0.0,0.0,0.0,0.0,0.199086,-0.240919,9.785462,0.0,0.0,0.0,0.0,0.0,0.0,0.0,0.0,0.0
1659939422117164944,147984,1659939422117164944,imu,-0.0137765073139,-0.0051304530119,-0.2810349032,0.959584946464,0.0,0.0,0.0,0.0,0.0,0.0,0.0,0.0,0.0,0.00121360606919,-0.00235792464682,0.000876768683079,0.0,0.0,0.0,0.0,0.0,0.0,0.0,0.0,0.0,0.187586,-0.200534,9.819235,0.0,0.0,0.0,0.0,0.0,0.0,0.0,0.0,0.0
1659939422122069818,147985,1659939422122069818,imu,-0.0137948623113,-0.00514604224662,-0.281037141747,0.959583943687,0.0,0.0,0.0,0.0,0.0,0.0,0.0,0.0,0.0,-0.00390792831871,-0.000749796751715,-0.00089087305794,0.0,0.0,0.0,0.0,0.0,0.0,0.0,0.0,0.0,0.2088,-0.238913,9.823544,0.0,0.0,0.0,0.0,0.0,0.0,0.0,0.0,0.0
1659939422127026723,147986,1659939422127026723,imu,-0.0137766877992,-0.00517243021089,-0.281036862438,0.959584144716,0.0,0.0,0.0,0.0,0.0,0.0,0.0,0.0,0.0,0.00276056177323,0.000741912107472,0.000284421060323,0.0,0.0,0.0,0.0,0.0,0.0,0.0,0.0,0.0,0.216183,-0.195821,9.804792,0.0,0.0,0.0,0.0,0.0,0.0,0.0,0.0,0.0
1659939422131972383,147987,1659939422131972383,imu,-0.013772336148,-0.00516739722469,-0.281034915075,0.959584804627,0.0,0.0,0.0,0.0,0.0,0.0,0.0,0.0,0.0,-0.000247042396769,0.00536067352277,0.000942644913055,0.0,0.0,0.0,0.0,0.0,0.0,0.0,0.0,0.0,0.187387,-0.22435,9.811889,0.0,0.0,0.0,0.0,0.0,0.0,0.0,0.0,0.0
1659939422137154380,147988,1659939422137154380,imu,-0.0137639281824,-0.00518620459816,-0.281035111259,0.959584766346,0.0,0.0,0.0,0.0,0.0,0.0,0.0,0.0,0.0,0.0015138701124,-0.00238287972761,-4.28759443418e-05,0.0,0.0,0.0,0.0,0.0,0.0,0.0,0.0,0.0,0.192271,-0.212503,9.819105,0.0,0.0,0.0,0.0,0.0,0.0,0.0,0.0,0.0
1659939422142075946,147989,1659939422142075946,imu,-0.0137626766495,-0.00519440514775,-0.281033940721,0.959585082757,0.0,0.0,0.0,0.0,0.0,0.0,0.0,0.0,0.0,-0.000274553128417,0.00287399420053,0.000613748268231,0.0,0.0,0.0,0.0,0.0,0.0,0.0,0.0,0.0,0.201597,-0.221813,9.783223,0.0,0.0,0.0,0.0,0.0,0.0,0.0,0.0,0.0
1659939422147010921,147990,1659939422147010921,imu,-0.0137479725289,-0.00517002347844,-0.281027714184,0.959587248753,0.0,0.0,0.0,0.0,0.0,0.0,0.0,0.0,0.0,-0.00325498544117,0.00623021509941,0.00276816416404,0.0,0.0,0.0,0.0,0.0,0.0,0.0,0.0,0.0,0.149257,-0.199952,9.778976,0.0,0.0,0.0,0.0,0.0,0.0,0.0,0.0,0.0
1659939422152127059,147991,1659939422152127059,imu,-0.0137490612399,-0.00515999670373,-0.281027133909,0.959587457065,0.0,0.0,0.0,0.0,0.0,0.0,0.0,0.0,0.0,-0.00264641357814,0.00280107752634,0.000297058570583,0.0,0.0,0.0,0.0,0.0,0.0,0.0,0.0,0.0,0.16812,-0.223849,9.766741,0.0,0.0,0.0,0.0,0.0,0.0,0.0,0.0,0.0
1659939422157081589,147992,1659939422157081589,imu,-0.0137435358975,-0.00515313070244,-0.281026474992,0.959587766084,0.0,0.0,0.0,0.0,0.0,0.0,0.0,0.0,0.0,6.78652851575e-05,-0.000626131787716,0.00024790186048,0.0,0.0,0.0,0.0,0.0,0.0,0.0,0.0,0.0,0.153965,-0.224078,9.804957,0.0,0.0,0.0,0.0,0.0,0.0,0.0,0.0,0.0
1659939422162075299,147993,1659939422162075299,imu,-0.013737946666,-0.0051344403263,-0.281030901788,0.959586649857,0.0,0.0,0.0,0.0,0.0,0.0,0.0,0.0,0.0,0.000689705782985,0.00400342451369,-0.00183720333084,0.0,0.0,0.0,0.0,0.0,0.0,0.0,0.0,0.0,0.153927,-0.233689,9.812025,0.0,0.0,0.0,0.0,0.0,0.0,0.0,0.0,0.0
1659939422167137940,147994,1659939422167137940,imu,-0.0137455903779,-0.00512741497346,-0.281028689432,0.959587225883,0.0,0.0,0.0,0.0,0.0,0.0,0.0,0.0,0.0,-0.00143510067465,0.000574939118222,0.000888093738102,0.0,0.0,0.0,0.0,0.0,0.0,0.0,0.0,0.0,0.165616,-0.240547,9.766619,0.0,0.0,0.0,0.0,0.0,0.0,0.0,0.0,0.0
1659939422172161401,147995,1659939422172161401,imu,-0.0137391215578,-0.00512653646631,-0.281027985641,0.959587529332,0.0,0.0,0.0,0.0,0.0,0.0,0.0,0.0,0.0,0.00156980620647,-0.00221255233764,0.000231777678706,0.0,0.0,0.0,0.0,0.0,0.0,0.0,0.0,0.0,0.156343,-0.226501,9.807305,0.0,0.0,0.0,0.0,0.0,0.0,0.0,0.0,0.0
1659939422177028353,147996,1659939422177028353,imu,-0.013741106541,-0.00513051169425,-0.281031550369,0.959586435678,0.0,0.0,0.0,0.0,0.0,0.0,0.0,0.0,0.0,0.000346253733699,-0.00216860374089,-0.00157140153808,0.0,0.0,0.0,0.0,0.0,0.0,0.0,0.0,0.0,0.170623,-0.233795,9.811916,0.0,0.0,0.0,0.0,0.0,0.0,0.0,0.0,0.0
1659939422181970871,147997,1659939422181970871,imu,-0.0137463022644,-0.00512794228499,-0.281028627041,0.959587231139,0.0,0.0,0.0,0.0,0.0,0.0,0.0,0.0,0.0,-0.000248263333095,-0.00154902078523,0.00116898279903,0.0,0.0,0.0,0.0,0.0,0.0,0.0,0.0,0.0,0.163514,-0.241112,9.835732,0.0,0.0,0.0,0.0,0.0,0.0,0.0,0.0,0.0
1659939422187097973,147998,1659939422187097973,imu,-0.013746615117,-0.00513865016801,-0.281028001471,0.959587352582,0.0,0.0,0.0,0.0,0.0,0.0,0.0,0.0,0.0,0.000348193940065,-0.00245274330906,0.000240620217022,0.0,0.0,0.0,0.0,0.0,0.0,0.0,0.0,0.0,0.180107,-0.226472,9.785705,0.0,0.0,0.0,0.0,0.0,0.0,0.0,0.0,0.0
1659939422192052294,147999,1659939422192052294,imu,-0.0137474452487,-0.00514860587995,-0.281023143538,0.959588710023,0.0,0.0,0.0,0.0,0.0,0.0,0.0,0.0,0.0,-0.000850269734149,-0.0018194160604,0.00206247089535,0.0,0.0,0.0,0.0,0.0,0.0,0.0,0.0,0.0,0.182467,-0.221592,9.771433,0.0,0.0,0.0,0.0,0.0,0.0,0.0,0.0,0.0
1659939422197022049,148000,1659939422197022049,imu,-0.0137380937377,-0.0051666390103,-0.281020525212,0.959589513819,0.0,0.0,0.0,0.0,0.0,0.0,0.0,0.0,0.0,0.00396509748865,-0.00244069151364,0.00109446907657,0.0,0.0,0.0,0.0,0.0,0.0,0.0,0.0,0.0,0.18975,-0.221898,9.802362,0.0,0.0,0.0,0.0,0.0,0.0,0.0,0.0,0.0
1659939422202123032,148001,1659939422202123032,imu,-0.013738709497,-0.00518140869473,-0.281014285598,0.959591252646,0.0,0.0,0.0,0.0,0.0,0.0,0.0,0.0,0.0,0.000342661154277,0.00159204205228,0.00264991305811,0.0,0.0,0.0,0.0,0.0,0.0,0.0,0.0,0.0,0.208736,-0.224247,9.783157,0.0,0.0,0.0,0.0,0.0,0.0,0.0,0.0,0.0
1659939422207062197,148002,1659939422207062197,imu,-0.0137318369475,-0.00518686521234,-0.281008274111,0.95959308197,0.0,0.0,0.0,0.0,0.0,0.0,0.0,0.0,0.0,-0.00237672728417,5.69039731528e-05,0.00263324554174,0.0,0.0,0.0,0.0,0.0,0.0,0.0,0.0,0.0,0.180404,-0.202856,9.816878,0.0,0.0,0.0,0.0,0.0,0.0,0.0,0.0,0.0
1659939422212013794,148003,1659939422212013794,imu,-0.0137460814536,-0.00519772972429,-0.281007920191,0.959592922879,0.0,0.0,0.0,0.0,0.0,0.0,0.0,0.0,0.0,0.00156522335066,0.00250841554379,0.000180750615342,0.0,0.0,0.0,0.0,0.0,0.0,0.0,0.0,0.0,0.213269,-0.257704,9.782848,0.0,0.0,0.0,0.0,0.0,0.0,0.0,0.0,0.0
1659939422217129862,148004,1659939422217129862,imu,-0.0137365668199,-0.00518738197586,-0.281011956648,0.959591933074,0.0,0.0,0.0,0.0,0.0,0.0,0.0,0.0,0.0,0.000336446684765,0.00158293522587,-0.00162872616209,0.0,0.0,0.0,0.0,0.0,0.0,0.0,0.0,0.0,0.156287,-0.219118,9.781155,0.0,0.0,0.0,0.0,0.0,0.0,0.0,0.0,0.0
1659939422222115890,148005,1659939422222115890,imu,-0.0137547093316,-0.00517169716878,-0.281014161269,0.959591112238,0.0,0.0,0.0,0.0,0.0,0.0,0.0,0.0,0.0,-0.0017691726257,0.00188372186443,-0.000990248046226,0.0,0.0,0.0,0.0,0.0,0.0,0.0,0.0,0.0,0.163315,-0.264929,9.828385,0.0,0.0,0.0,0.0,0.0,0.0,0.0,0.0,0.0
1659939422227063575,148006,1659939422227063575,imu,-0.0137509412458,-0.0051466536465,-0.281012836317,0.959591688895,0.0,0.0,0.0,0.0,0.0,0.0,0.0,0.0,0.0,0.000669325156063,0.00368188444725,0.000523010191536,0.0,0.0,0.0,0.0,0.0,0.0,0.0,0.0,0.0,0.142018,-0.240916,9.828722,0.0,0.0,0.0,0.0,0.0,0.0,0.0,0.0,0.0
1659939422231980113,148007,1659939422231980113,imu,-0.0137691843274,-0.00512406947782,-0.281015571473,0.959590747175,0.0,0.0,0.0,0.0,0.0,0.0,0.0,0.0,0.0,0.000346620670274,0.00181654086866,-0.00130378130438,0.0,0.0,0.0,0.0,0.0,0.0,0.0,0.0,0.0,0.148795,-0.278943,9.80215,0.0,0.0,0.0,0.0,0.0,0.0,0.0,0.0,0.0
1659939422237104073,148008,1659939422237104073,imu,-0.013763055084,-0.00510592173028,-0.281017955942,0.959590233546,0.0,0.0,0.0,0.0,0.0,0.0,0.0,0.0,0.0,0.00034743959595,0.00241085565133,-0.000984477477515,0.0,0.0,0.0,0.0,0.0,0.0,0.0,0.0,0.0,0.146759,-0.231196,9.804945,0.0,0.0,0.0,0.0,0.0,0.0,0.0,0.0,0.0
1659939422242045124,148009,1659939422242045124,imu,-0.013783330438,-0.00510700045841,-0.281020667996,0.959589142554,0.0,0.0,0.0,0.0,0.0,0.0,0.0,0.0,0.0,0.00120864616639,-0.00407229514434,-0.0013311280707,0.0,0.0,0.0,0.0,0.0,0.0,0.0,0.0,0.0,0.165515,-0.274254,9.799698,0.0,0.0,0.0,0.0,0.0,0.0,0.0,0.0,0.0
1659939422247036040,148010,1659939422247036040,imu,-0.0137762946294,-0.00510450779754,-0.28102147625,0.95958902015,0.0,0.0,0.0,0.0,0.0,0.0,0.0,0.0,0.0,0.000906881300121,-0.00249953369466,-0.000398966912263,0.0,0.0,0.0,0.0,0.0,0.0,0.0,0.0,0.0,0.151639,-0.224183,9.819268,0.0,0.0,0.0,0.0,0.0,0.0,0.0,0.0,0.0
1659939422252157556,148011,1659939422252157556,imu,-0.0137880076119,-0.00511026018965,-0.281025175657,0.959587737903,0.0,0.0,0.0,0.0,0.0,0.0,0.0,0.0,0.0,-0.000315502011623,-0.00368697163972,-0.0016014839106,0.0,0.0,0.0,0.0,0.0,0.0,0.0,0.0,0.0,0.170365,-0.2478,9.773676,0.0,0.0,0.0,0.0,0.0,0.0,0.0,0.0,0.0
1659939422257072347,148012,1659939422257072347,imu,-0.0137979837194,-0.00511532812882,-0.281025161556,0.959587571635,0.0,0.0,0.0,0.0,0.0,0.0,0.0,0.0,0.0,-0.00181419949672,-0.00395920165371,-6.74090897813e-05,0.0,0.0,0.0,0.0,0.0,0.0,0.0,0.0,0.0,0.168116,-0.238375,9.790449,0.0,0.0,0.0,0.0,0.0,0.0,0.0,0.0,0.0
1659939422262017449,148013,1659939422262017449,imu,-0.0137910099837,-0.00513146094281,-0.281022589086,0.95958833912,0.0,0.0,0.0,0.0,0.0,0.0,0.0,0.0,0.0,0.00213499853613,-0.000880569563375,0.00113222085064,0.0,0.0,0.0,0.0,0.0,0.0,0.0,0.0,0.0,0.194498,-0.21946,9.79282,0.0,0.0,0.0,0.0,0.0,0.0,0.0,0.0,0.0
1659939422267153282,148014,1659939422267153282,imu,-0.0138021868287,-0.00515211264515,-0.281018476089,0.959589272278,0.0,0.0,0.0,0.0,0.0,0.0,0.0,0.0,0.0,-0.0032991302374,-0.000840817609307,0.0017667268395,0.0,0.0,0.0,0.0,0.0,0.0,0.0,0.0,0.0,0.213594,-0.224457,9.804571,0.0,0.0,0.0,0.0,0.0,0.0,0.0,0.0,0.0
1659939422272157048,148015,1659939422272157048,imu,-0.013792702505,-0.00516313906473,-0.28101452745,0.959590505744,0.0,0.0,0.0,0.0,0.0,0.0,0.0,0.0,0.0,4.61474430035e-05,-0.000239350567644,0.00172768574549,0.0,0.0,0.0,0.0,0.0,0.0,0.0,0.0,0.0,0.187457,-0.207537,9.800113,0.0,0.0,0.0,0.0,0.0,0.0,0.0,0.0,0.0
1659939422277081897,148016,1659939422277081897,imu,-0.0138151430771,-0.00517354853248,-0.281020506669,0.959588375841,0.0,0.0,0.0,0.0,0.0,0.0,0.0,0.0,0.0,-0.00296437762539,0.00135227413052,-0.00247865358812,0.0,0.0,0.0,0.0,0.0,0.0,0.0,0.0,0.0,0.210878,-0.252833,9.773374,0.0,0.0,0.0,0.0,0.0,0.0,0.0,0.0,0.0
1659939422281992638,148017,1659939422281992638,imu,-0.0137943854952,-0.0051905957627,-0.281023205653,0.959587791986,0.0,0.0,0.0,0.0,0.0,0.0,0.0,0.0,0.0,0.000675179162918,0.000688620780702,-0.000978105474007,0.0,0.0,0.0,0.0,0.0,0.0,0.0,0.0,0.0,0.197101,-0.186009,9.788316,0.0,0.0,0.0,0.0,0.0,0.0,0.0,0.0,0.0
1659939422289783546,148018,1659939422289783546,imu,-0.0138108466682,-0.00520902145976,-0.28103369081,0.959584384637,0.0,0.0,0.0,0.0,0.0,0.0,0.0,0.0,0.0,-0.00114629163391,-0.000214670196121,-0.00277129386794,0.0,0.0,0.0,0.0,0.0,0.0,0.0,0.0,0.0,0.215883,-0.243653,9.813928,0.0,0.0,0.0,0.0,0.0,0.0,0.0,0.0,0.0
1659939422292067426,148019,1659939422292067426,imu,-0.0137990375064,-0.0052168383113,-0.281035310385,0.959584037736,0.0,0.0,0.0,0.0,0.0,0.0,0.0,0.0,0.0,-0.00201924202743,0.00224100853202,-0.00120976271879,0.0,0.0,0.0,0.0,0.0,0.0,0.0,0.0,0.0,0.187576,-0.200514,9.816852,0.0,0.0,0.0,0.0,0.0,0.0,0.0,0.0,0.0
1659939422297020140,148020,1659939422297020140,imu,-0.0137959005807,-0.00521221782863,-0.281034003655,0.959584490653,0.0,0.0,0.0,0.0,0.0,0.0,0.0,0.0,0.0,0.00132139234541,0.00341254345593,0.00059576648177,0.0,0.0,0.0,0.0,0.0,0.0,0.0,0.0,0.0,0.180085,-0.233695,9.792793,0.0,0.0,0.0,0.0,0.0,0.0,0.0,0.0,0.0
1659939422302250954,148021,1659939422302250954,imu,-0.0137986541494,-0.00519076436089,-0.281042349874,0.95958212295,0.0,0.0,0.0,0.0,0.0,0.0,0.0,0.0,0.0,-0.00140204685676,0.00465597494829,-0.00330216266673,0.0,0.0,0.0,0.0,0.0,0.0,0.0,0.0,0.0,0.158568,-0.240722,9.792874,0.0,0.0,0.0,0.0,0.0,0.0,0.0,0.0,0.0
1659939422307077539,148022,1659939422307077539,imu,-0.0137897821018,-0.00516188549983,-0.28104634233,0.959581236952,0.0,0.0,0.0,0.0,0.0,0.0,0.0,0.0,0.0,0.00221836175691,0.00334448904515,-0.0017979237756,0.0,0.0,0.0,0.0,0.0,0.0,0.0,0.0,0.0,0.129946,-0.24054,9.793059,0.0,0.0,0.0,0.0,0.0,0.0,0.0,0.0,0.0
1659939422312030533,148023,1659939422312030533,imu,-0.0137878481696,-0.00514155452896,-0.281041878754,0.959582681193,0.0,0.0,0.0,0.0,0.0,0.0,0.0,0.0,0.0,-0.000505148578187,0.00268619237148,0.00185726891436,0.0,0.0,0.0,0.0,0.0,0.0,0.0,0.0,0.0,0.146666,-0.235851,9.790607,0.0,0.0,0.0,0.0,0.0,0.0,0.0,0.0,0.0
1659939422317150582,148024,1659939422317150582,imu,-0.0137963313435,-0.00511640465949,-0.281041580456,0.959582781056,0.0,0.0,0.0,0.0,0.0,0.0,0.0,0.0,0.0,-0.00111338938546,0.00144758831614,2.40290563022e-05,0.0,0.0,0.0,0.0,0.0,0.0,0.0,0.0,0.0,0.136931,-0.254771,9.776215,0.0,0.0,0.0,0.0,0.0,0.0,0.0,0.0,0.0
1659939422322241019,148025,1659939422322241019,imu,-0.0138002980065,-0.00509308648385,-0.281044185588,0.959582085073,0.0,0.0,0.0,0.0,0.0,0.0,0.0,0.0,0.0,0.000690588603944,-0.000106476883189,-0.00120854964732,0.0,0.0,0.0,0.0,0.0,0.0,0.0,0.0,0.0,0.129815,-0.254806,9.785792,0.0,0.0,0.0,0.0,0.0,0.0,0.0,0.0,0.0
1659939422327110554,148026,1659939422327110554,imu,-0.0137883753848,-0.00505897289554,-0.281041667404,0.959583174446,0.0,0.0,0.0,0.0,0.0,0.0,0.0,0.0,0.0,0.0021913581651,-0.000438909453295,0.000901471002871,0.0,0.0,0.0,0.0,0.0,0.0,0.0,0.0,0.0,0.098917,-0.237875,9.78375,0.0,0.0,0.0,0.0,0.0,0.0,0.0,0.0,0.0
1659939422332040012,148027,1659939422332040012,imu,-0.0138011905533,-0.00504340886119,-0.281036318269,0.959584638779,0.0,0.0,0.0,0.0,0.0,0.0,0.0,0.0,0.0,6.34920852859e-05,-0.00104477159013,0.00211126543714,0.0,0.0,0.0,0.0,0.0,0.0,0.0,0.0,0.0,0.144136,-0.264607,9.804683,0.0,0.0,0.0,0.0,0.0,0.0,0.0,0.0,0.0
1659939422337111313,148028,1659939422337111313,imu,-0.013811586714,-0.00504129855424,-0.281035341808,0.959584786267,0.0,0.0,0.0,0.0,0.0,0.0,0.0,0.0,0.0,-0.000562772162973,-0.00439787633198,0.000259571876259,0.0,0.0,0.0,0.0,0.0,0.0,0.0,0.0,0.0,0.151481,-0.250507,9.826199,0.0,0.0,0.0,0.0,0.0,0.0,0.0,0.0,0.0
1659939422342063190,148029,1659939422342063190,imu,-0.0137987794645,-0.00504134013747,-0.281033860956,0.959585404001,0.0,0.0,0.0,0.0,0.0,0.0,0.0,0.0,0.0,0.0018517565488,-0.00406463385428,0.000542127527088,0.0,0.0,0.0,0.0,0.0,0.0,0.0,0.0,0.0,0.144446,-0.216795,9.797929,0.0,0.0,0.0,0.0,0.0,0.0,0.0,0.0,0.0
1659939422347008710,148030,1659939422347008710,imu,-0.0138007827442,-0.00505257278226,-0.28103333813,0.959585469233,0.0,0.0,0.0,0.0,0.0,0.0,0.0,0.0,0.0,-0.00054927734093,0.000297758555337,0.000285645874906,0.0,0.0,0.0,0.0,0.0,0.0,0.0,0.0,0.0,0.194447,-0.226623,9.792761,0.0,0.0,0.0,0.0,0.0,0.0,0.0,0.0,0.0
1659939422352161654,148031,1659939422352161654,imu,-0.0138133881673,-0.00506582285516,-0.281037257728,0.959584070061,0.0,0.0,0.0,0.0,0.0,0.0,0.0,0.0,0.0,-0.00386073621065,-0.000284333936794,-0.00150611512221,0.0,0.0,0.0,0.0,0.0,0.0,0.0,0.0,0.0,0.201644,-0.229177,9.806992,0.0,0.0,0.0,0.0,0.0,0.0,0.0,0.0,0.0
1659939422357111714,148032,1659939422357111714,imu,-0.013810053776,-0.00508412317386,-0.281032501248,0.959585414306,0.0,0.0,0.0,0.0,0.0,0.0,0.0,0.0,0.0,-0.00110912168953,-0.000941919346657,0.00210375740518,0.0,0.0,0.0,0.0,0.0,0.0,0.0,0.0,0.0,0.199297,-0.20986,9.783338,0.0,0.0,0.0,0.0,0.0,0.0,0.0,0.0,0.0
1659939422362027483,148033,1659939422362027483,imu,-0.0138177364673,-0.00510964447924,-0.281036275403,0.95958406281,0.0,0.0,0.0,0.0,0.0,0.0,0.0,0.0,0.0,0.000389549777156,-0.00214417316977,-0.00155870963842,0.0,0.0,0.0,0.0,0.0,0.0,0.0,0.0,0.0,0.213458,-0.233867,9.787811,0.0,0.0,0.0,0.0,0.0,0.0,0.0,0.0,0.0
