%time,field.header.seq,field.header.stamp,field.header.frame_id,field.orientation.x,field.orientation.y,field.orientation.z,field.orientation.w,field.orientation_covariance0,field.orientation_covariance1,field.orientation_covariance2,field.orientation_covariance3,field.orientation_covariance4,field.orientation_covariance5,field.orientation_covariance6,field.orientation_covariance7,field.orientation_covariance8,field.angular_velocity.x,field.angular_velocity.y,field.angular_velocity.z,field.angular_velocity_covariance0,field.angular_velocity_covariance1,field.angular_velocity_covariance2,field.angular_velocity_covariance3,field.angular_velocity_covariance4,field.angular_velocity_covariance5,field.angular_velocity_covariance6,field.angular_velocity_covariance7,field.angular_velocity_covariance8,field.linear_acceleration.x,field.linear_acceleration.y,field.linear_acceleration.z,field.linear_acceleration_covariance0,field.linear_acceleration_covariance1,field.linear_acceleration_covariance2,field.linear_acceleration_covariance3,field.linear_acceleration_covariance4,field.linear_acceleration_covariance5,field.linear_acceleration_covariance6,field.linear_acceleration_covariance7,field.linear_acceleration_covariance8
1660014322464443628,40529,1660014322464443628,imu,-0.00122,-0.002047,-0.076195,0.99709,0.0,0.0,0.0,0.0,0.0,0.0,0.0,0.0,0.0,0.000909159460656,0.000467294453929,0.00147834623632,0.0,0.0,0.0,0.0,0.0,0.0,0.0,0.0,0.0,0.024627,-0.026322,9.80881,0.0,0.0,0.0,0.0,0.0,0.0,0.0,0.0,0.0
1660014322469385007,40530,1660014322469385007,imu,-0.001217,-0.002046,-0.076193,0.99709,0.0,0.0,0.0,0.0,0.0,0.0,0.0,0.0,0.0,0.00242597275369,0.000464344847493,0.000552152362161,0.0,0.0,0.0,0.0,0.0,0.0,0.0,0.0,0.0,0.036524,-0.036028,9.818184,0.0,0.0,0.0,0.0,0.0,0.0,0.0,0.0,0.0
1660014322474358933,40531,1660014322474358933,imu,-0.001215,-0.002044,-0.076192,0.99709,0.0,0.0,0.0,0.0,0.0,0.0,0.0,0.0,0.0,-0.00122595417319,-0.000125663706144,-0.000338157542574,0.0,0.0,0.0,0.0,0.0,0.0,0.0,0.0,0.0,0.012685,-0.028634,9.808867,0.0,0.0,0.0,0.0,0.0,0.0,0.0,0.0,0.0
1660014322479466817,40532,1660014322479466817,imu,-0.001215,-0.002045,-0.076189,0.99709,0.0,0.0,0.0,0.0,0.0,0.0,0.0,0.0,0.0,0.00059328977263,-0.00107384872887,0.000250192948273,0.0,0.0,0.0,0.0,0.0,0.0,0.0,0.0,0.0,0.024545,-0.030997,9.796856,0.0,0.0,0.0,0.0,0.0,0.0,0.0,0.0,0.0
1660014322484425587,40533,1660014322484425587,imu,-0.001218,-0.002047,-0.07619,0.99709,0.0,0.0,0.0,0.0,0.0,0.0,0.0,0.0,0.0,-0.0021445558651,-0.00136170588241,-0.000340199577799,0.0,0.0,0.0,0.0,0.0,0.0,0.0,0.0,0.0,0.014911,-0.035592,9.782583,0.0,0.0,0.0,0.0,0.0,0.0,0.0,0.0,0.0
1660014322489380027,40534,1660014322489380027,imu,-0.001223,-0.002046,-0.076187,0.99709,0.0,0.0,0.0,0.0,0.0,0.0,0.0,0.0,0.0,-0.000616502651682,0.000180833563799,-0.000340618456819,0.0,0.0,0.0,0.0,0.0,0.0,0.0,0.0,0.0,0.038739,-0.050229,9.801371,0.0,0.0,0.0,0.0,0.0,0.0,0.0,0.0,0.0
1660014322494495314,40535,1660014322494495314,imu,-0.001229,-0.002047,-0.076185,0.99709,0.0,0.0,0.0,0.0,0.0,0.0,0.0,0.0,0.0,-0.00305526866879,-0.00135805814427,-2.82917871748e-05,0.0,0.0,0.0,0.0,0.0,0.0,0.0,0.0,0.0,0.043395,-0.052447,9.777494,0.0,0.0,0.0,0.0,0.0,0.0,0.0,0.0,0.0
1660014322499486771,40536,1660014322499486771,imu,-0.001237,-0.002047,-0.076184,0.99709,0.0,0.0,0.0,0.0,0.0,0.0,0.0,0.0,0.0,-0.00244148873074,-0.00043287656108,0.000278589455203,0.0,0.0,0.0,0.0,0.0,0.0,0.0,0.0,0.0,0.026835,-0.04293,9.79436,0.0,0.0,0.0,0.0,0.0,0.0,0.0,0.0,0.0
1660014322504426823,40537,1660014322504426823,imu,-0.001239,-0.002048,-0.07618,0.997091,0.0,0.0,0.0,0.0,0.0,0.0,0.0,0.0,0.0,0.00243047570316,0.000135088484104,0.00298795131954,0.0,0.0,0.0,0.0,0.0,0.0,0.0,0.0,0.0,0.036509,-0.031153,9.806311,0.0,0.0,0.0,0.0,0.0,0.0,0.0,0.0,0.0
1660014322509540085,40538,1660014322509540085,imu,-0.001236,-0.002051,-0.076177,0.997091,0.0,0.0,0.0,0.0,0.0,0.0,0.0,0.0,0.0,-0.000630709631793,-0.0023032062941,-0.00035897932055,0.0,0.0,0.0,0.0,0.0,0.0,0.0,0.0,0.0,0.055659,-0.021724,9.806266,0.0,0.0,0.0,0.0,0.0,0.0,0.0,0.0,0.0
1660014322514466518,40539,1660014322514466518,imu,-0.001239,-0.002056,-0.076178,0.997091,0.0,0.0,0.0,0.0,0.0,0.0,0.0,0.0,0.0,-0.000318173522639,0.000195232530128,-0.00247632550261,0.0,0.0,0.0,0.0,0.0,0.0,0.0,0.0,0.0,0.029303,-0.02858,9.789699,0.0,0.0,0.0,0.0,0.0,0.0,0.0,0.0,0.0
1660014322519416836,40540,1660014322519416836,imu,-0.001239,-0.00205,-0.076179,0.997091,0.0,0.0,0.0,0.0,0.0,0.0,0.0,0.0,0.0,0.00366164841081,0.00386958693789,0.000872647172705,0.0,0.0,0.0,0.0,0.0,0.0,0.0,0.0,0.0,0.014924,-0.038039,9.789711,0.0,0.0,0.0,0.0,0.0,0.0,0.0,0.0,0.0
1660014322524354444,40541,1660014322524354444,imu,-0.001234,-0.002047,-0.07618,0.997091,0.0,0.0,0.0,0.0,0.0,0.0,0.0,0.0,0.0,0.000892194860327,-0.00137697751336,-0.000973509750177,0.0,0.0,0.0,0.0,0.0,0.0,0.0,0.0,0.0,0.055578,-0.028827,9.799058,0.0,0.0,0.0,0.0,0.0,0.0,0.0,0.0,0.0
1660014322529489148,40542,1660014322529489148,imu,-0.001236,-0.002043,-0.07618,0.997091,0.0,0.0,0.0,0.0,0.0,0.0,0.0,0.0,0.0,-0.00182886070999,0.00112737797703,-0.00123850309051,0.0,0.0,0.0,0.0,0.0,0.0,0.0,0.0,0.0,0.012784,-0.011881,9.80424,0.0,0.0,0.0,0.0,0.0,0.0,0.0,0.0,0.0
1660014322534409504,40543,1660014322534409504,imu,-0.001239,-0.002041,-0.076177,0.997091,0.0,0.0,0.0,0.0,0.0,0.0,0.0,0.0,0.0,-0.00121982806751,0.000803497227741,-2.65115513378e-05,0.0,0.0,0.0,0.0,0.0,0.0,0.0,0.0,0.0,0.015119,-0.028749,9.820765,0.0,0.0,0.0,0.0,0.0,0.0,0.0,0.0,0.0
1660014322539445101,40544,1660014322539445101,imu,-0.001235,-0.002035,-0.076177,0.997091,0.0,0.0,0.0,0.0,0.0,0.0,0.0,0.0,0.0,-0.000296880505764,0.00265820626396,0.000284872640511,0.0,0.0,0.0,0.0,0.0,0.0,0.0,0.0,0.0,0.00088,-0.014272,9.813828,0.0,0.0,0.0,0.0,0.0,0.0,0.0,0.0,0.0
1660014322544540903,40545,1660014322544540903,imu,-0.001239,-0.00203,-0.076173,0.997091,0.0,0.0,0.0,0.0,0.0,0.0,0.0,0.0,0.0,-0.00424792195984,0.0020561200319,0.00122550038758,0.0,0.0,0.0,0.0,0.0,0.0,0.0,0.0,0.0,0.024627,-0.026322,9.80881,0.0,0.0,0.0,0.0,0.0,0.0,0.0,0.0,0.0
1660014322549491082,40546,1660014322549491082,imu,-0.001242,-0.00203,-0.07617,0.997091,0.0,0.0,0.0,0.0,0.0,0.0,0.0,0.0,0.0,0.00119464296641,-0.00232221292966,0.000541017161533,0.0,0.0,0.0,0.0,0.0,0.0,0.0,0.0,0.0,0.038895,-0.031168,9.806295,0.0,0.0,0.0,0.0,0.0,0.0,0.0,0.0,0.0
1660014322554410041,40547,1660014322554410041,imu,-0.001239,-0.00203,-0.07617,0.997091,0.0,0.0,0.0,0.0,0.0,0.0,0.0,0.0,0.0,0.00212076702739,0.000786218468146,-0.000662195371499,0.0,0.0,0.0,0.0,0.0,0.0,0.0,0.0,0.0,0.019706,-0.030827,9.78021,0.0,0.0,0.0,0.0,0.0,0.0,0.0,0.0,0.0
1660014322559359801,40548,1660014322559359801,imu,-0.001239,-0.00203,-0.076172,0.997091,0.0,0.0,0.0,0.0,0.0,0.0,0.0,0.0,0.0,-0.0027514417526,-0.00136004781962,-3.06654349575e-05,0.0,0.0,0.0,0.0,0.0,0.0,0.0,0.0,0.0,0.027129,-0.016887,9.820787,0.0,0.0,0.0,0.0,0.0,0.0,0.0,0.0,0.0
1660014322564503864,40549,1660014322564503864,imu,-0.001243,-0.002035,-0.076172,0.997091,0.0,0.0,0.0,0.0,0.0,0.0,0.0,0.0,0.0,-0.00031700415204,-0.000439822971503,-0.000652351714518,0.0,0.0,0.0,0.0,0.0,0.0,0.0,0.0,0.0,0.048697,-0.002697,9.820766,0.0,0.0,0.0,0.0,0.0,0.0,0.0,0.0,0.0
1660014322569452507,40550,1660014322569452507,imu,-0.001239,-0.002035,-0.076175,0.997091,0.0,0.0,0.0,0.0,0.0,0.0,0.0,0.0,0.0,0.00362770175686,-0.00108210413624,-0.00129739049947,0.0,0.0,0.0,0.0,0.0,0.0,0.0,0.0,0.0,0.041413,-0.009655,9.801692,0.0,0.0,0.0,0.0,0.0,0.0,0.0,0.0,0.0
1660014322574412953,40551,1660014322574412953,imu,-0.001237,-0.002036,-0.076178,0.997091,0.0,0.0,0.0,0.0,0.0,0.0,0.0,0.0,0.0,-0.000310302087712,0.000171810211566,0.000571281170763,0.0,0.0,0.0,0.0,0.0,0.0,0.0,0.0,0.0,0.038835,-0.021357,9.7754,0.0,0.0,0.0,0.0,0.0,0.0,0.0,0.0,0.0
1660014322579497719,40552,1660014322579497719,imu,-0.001239,-0.002039,-0.076177,0.997091,0.0,0.0,0.0,0.0,0.0,0.0,0.0,0.0,0.0,-0.00154123044927,-0.00198436954635,-0.00065430648328,0.0,0.0,0.0,0.0,0.0,0.0,0.0,0.0,0.0,0.055546,-0.026339,9.787165,0.0,0.0,0.0,0.0,0.0,0.0,0.0,0.0,0.0
1660014322584437422,40553,1660014322584437422,imu,-0.001241,-0.002039,-0.07618,0.997091,0.0,0.0,0.0,0.0,0.0,0.0,0.0,0.0,0.0,-0.000912824652086,0.00205524736727,-0.00154351683059,0.0,0.0,0.0,0.0,0.0,0.0,0.0,0.0,0.0,0.041155,-0.033351,9.780051,0.0,0.0,0.0,0.0,0.0,0.0,0.0,0.0,0.0
1660014322589383271,40554,1660014322589383271,imu,-0.001241,-0.002038,-0.076178,0.997091,0.0,0.0,0.0,0.0,0.0,0.0,0.0,0.0,0.0,0.00301392181881,-0.00200728571943,-0.00160428919514,0.0,0.0,0.0,0.0,0.0,0.0,0.0,0.0,0.0,0.014909,-0.042855,9.794437,0.0,0.0,0.0,0.0,0.0,0.0,0.0,0.0,0.0
1660014322594502121,40555,1660014322594502121,imu,-0.001235,-0.002041,-0.076177,0.997091,0.0,0.0,0.0,0.0,0.0,0.0,0.0,0.0,0.0,0.00484599393462,-0.00141465917191,0.000519340172223,0.0,0.0,0.0,0.0,0.0,0.0,0.0,0.0,0.0,0.031746,-0.028715,9.803978,0.0,0.0,0.0,0.0,0.0,0.0,0.0,0.0,0.0
1660014322599490085,40556,1660014322599490085,imu,-0.001227,-0.002045,-0.076173,0.997091,0.0,0.0,0.0,0.0,0.0,0.0,0.0,0.0,0.0,0.00209034593853,-0.00480757923779,-9.39859802199e-05,0.0,0.0,0.0,0.0,0.0,0.0,0.0,0.0,0.0,0.019796,-0.033435,9.806399,0.0,0.0,0.0,0.0,0.0,0.0,0.0,0.0,0.0
1660014322604444734,40557,1660014322604444734,imu,-0.001226,-0.002053,-0.076174,0.997091,0.0,0.0,0.0,0.0,0.0,0.0,0.0,0.0,0.0,-0.0012361992559,-0.00135831994366,-0.00156638064379,0.0,0.0,0.0,0.0,0.0,0.0,0.0,0.0,0.0,0.038885,-0.031148,9.803912,0.0,0.0,0.0,0.0,0.0,0.0,0.0,0.0,0.0
1660014322609404272,40558,1660014322609404272,imu,-0.001231,-0.002056,-0.076169,0.997092,0.0,0.0,0.0,0.0,0.0,0.0,0.0,0.0,0.0,-0.00243792825906,0.000188129040072,0.000283162217844,0.0,0.0,0.0,0.0,0.0,0.0,0.0,0.0,0.0,0.048515,-0.014435,9.79684,0.0,0.0,0.0,0.0,0.0,0.0,0.0,0.0,0.0
1660014322614518652,40559,1660014322614518652,imu,-0.001237,-0.002058,-0.07617,0.997091,0.0,0.0,0.0,0.0,0.0,0.0,0.0,0.0,0.0,-0.00183224664874,-0.000441550847462,0.000883346041019,0.0,0.0,0.0,0.0,0.0,0.0,0.0,0.0,0.0,0.022069,-0.028374,9.770682,0.0,0.0,0.0,0.0,0.0,0.0,0.0,0.0,0.0
1660014322619460031,40560,1660014322619460031,imu,-0.001239,-0.002059,-0.076167,0.997092,0.0,0.0,0.0,0.0,0.0,0.0,0.0,0.0,0.0,-0.000618684313247,-0.000760038529366,0.000871530161983,0.0,0.0,0.0,0.0,0.0,0.0,0.0,0.0,0.0,0.026935,-0.035868,9.806333,0.0,0.0,0.0,0.0,0.0,0.0,0.0,0.0,0.0
1660014322624389956,40561,1660014322624389956,imu,-0.001239,-0.002058,-0.076165,0.997092,0.0,0.0,0.0,0.0,0.0,0.0,0.0,0.0,0.0,0.00090600041471,0.000476666872012,0.000259286113676,0.0,0.0,0.0,0.0,0.0,0.0,0.0,0.0,0.0,0.029269,-0.033355,9.789659,0.0,0.0,0.0,0.0,0.0,0.0,0.0,0.0,0.0
1660014322629518025,40562,1660014322629518025,imu,-0.001241,-0.002055,-0.076165,0.997092,0.0,0.0,0.0,0.0,0.0,0.0,0.0,0.0,0.0,-0.00122000260044,0.00175142045108,-0.0021529508988,0.0,0.0,0.0,0.0,0.0,0.0,0.0,0.0,0.0,0.017326,-0.035667,9.789716,0.0,0.0,0.0,0.0,0.0,0.0,0.0,0.0,0.0
1660014322634488598,40563,1660014322634488598,imu,-0.001241,-0.002055,-0.076165,0.997092,0.0,0.0,0.0,0.0,0.0,0.0,0.0,0.0,0.0,0.00120806454835,0.000164165669443,0.000254608631281,0.0,0.0,0.0,0.0,0.0,0.0,0.0,0.0,0.0,0.039008,-0.0096,9.796942,0.0,0.0,0.0,0.0,0.0,0.0,0.0,0.0,0.0
1660014322639430955,40564,1660014322639430955,imu,-0.001239,-0.00205,-0.076159,0.997092,0.0,0.0,0.0,0.0,0.0,0.0,0.0,0.0,0.0,-0.000289585029491,0.00295231169621,0.00242050987313,0.0,0.0,0.0,0.0,0.0,0.0,0.0,0.0,0.0,0.024479,-0.042975,9.801522,0.0,0.0,0.0,0.0,0.0,0.0,0.0,0.0,0.0
1660014322644547430,40565,1660014322644547430,imu,-0.001238,-0.002046,-0.076156,0.997093,0.0,0.0,0.0,0.0,0.0,0.0,0.0,0.0,0.0,0.00270789578776,-0.00294618559054,-0.000389749475263,0.0,0.0,0.0,0.0,0.0,0.0,0.0,0.0,0.0,0.012748,-0.023919,9.816054,0.0,0.0,0.0,0.0,0.0,0.0,0.0,0.0,0.0
1660014322649500822,40566,1660014322649500822,imu,-0.001233,-0.002049,-0.076154,0.997093,0.0,0.0,0.0,0.0,0.0,0.0,0.0,0.0,0.0,0.0012049229557,0.000173538087526,-0.000964416584775,0.0,0.0,0.0,0.0,0.0,0.0,0.0,0.0,0.0,0.01984,-0.028679,9.808822,0.0,0.0,0.0,0.0,0.0,0.0,0.0,0.0,0.0
1660014322654455331,40567,1660014322654455331,imu,-0.001233,-0.002049,-0.076151,0.997093,0.0,0.0,0.0,0.0,0.0,0.0,0.0,0.0,0.0,-0.00121626759584,0.00142452028219,-2.1921335405e-05,0.0,0.0,0.0,0.0,0.0,0.0,0.0,0.0,0.0,0.046147,-0.021723,9.813476,0.0,0.0,0.0,0.0,0.0,0.0,0.0,0.0,0.0
1660014322659390773,40568,1660014322659390773,imu,-0.001233,-0.00205,-0.076152,0.997093,0.0,0.0,0.0,0.0,0.0,0.0,0.0,0.0,0.0,0.0014986793221,-0.00200903104868,-6.85739863109e-05,0.0,0.0,0.0,0.0,0.0,0.0,0.0,0.0,0.0,0.05544,-0.0455,9.794154,0.0,0.0,0.0,0.0,0.0,0.0,0.0,0.0,0.0
1660014322664480708,40569,1660014322664480708,imu,-0.001231,-0.002049,-0.076152,0.997093,0.0,0.0,0.0,0.0,0.0,0.0,0.0,0.0,0.0,-0.000614320990117,0.00112172311026,-0.00155278452891,0.0,0.0,0.0,0.0,0.0,0.0,0.0,0.0,0.0,0.029363,-0.021437,9.79214,0.0,0.0,0.0,0.0,0.0,0.0,0.0,0.0,0.0
1660014322669469371,40570,1660014322669469371,imu,-0.00123,-0.002045,-0.076155,0.997093,0.0,0.0,0.0,0.0,0.0,0.0,0.0,0.0,0.0,0.000604774039109,0.00204994156634,-0.00216494131076,0.0,0.0,0.0,0.0,0.0,0.0,0.0,0.0,0.0,0.045994,-0.033521,9.796698,0.0,0.0,0.0,0.0,0.0,0.0,0.0,0.0,0.0
1660014322674414870,40571,1660014322674414870,imu,-0.001223,-0.002045,-0.076157,0.997092,0.0,0.0,0.0,0.0,0.0,0.0,0.0,0.0,0.0,0.00393430374655,-0.000460749469234,-0.0015999433253,0.0,0.0,0.0,0.0,0.0,0.0,0.0,0.0,0.0,0.014926,-0.040467,9.794457,0.0,0.0,0.0,0.0,0.0,0.0,0.0,0.0,0.0
1660014322679535606,40572,1660014322679535606,imu,-0.001222,-0.002043,-0.076157,0.997092,0.0,0.0,0.0,0.0,0.0,0.0,0.0,0.0,0.0,-0.00182493371918,0.00111564936446,0.000285291519531,0.0,0.0,0.0,0.0,0.0,0.0,0.0,0.0,0.0,0.029422,-0.021557,9.806436,0.0,0.0,0.0,0.0,0.0,0.0,0.0,0.0,0.0
1660014322684479639,40573,1660014322684479639,imu,-0.001228,-0.002039,-0.076153,0.997093,0.0,0.0,0.0,0.0,0.0,0.0,0.0,0.0,0.0,-0.0015096574431,0.00297435520466,0.000601440460237,0.0,0.0,0.0,0.0,0.0,0.0,0.0,0.0,0.0,0.022128,-0.038185,9.801579,0.0,0.0,0.0,0.0,0.0,0.0,0.0,0.0,0.0
1660014322689437571,40574,1660014322689437571,imu,-0.001232,-0.002034,-0.076153,0.997093,0.0,0.0,0.0,0.0,0.0,0.0,0.0,0.0,0.0,0.000292429916172,-0.000133308248267,-0.000654812628763,0.0,0.0,0.0,0.0,0.0,0.0,0.0,0.0,0.0,0.010163,-0.038029,9.792126,0.0,0.0,0.0,0.0,0.0,0.0,0.0,0.0,0.0
1660014322694554255,40575,1660014322694554255,imu,-0.001231,-0.002035,-0.076152,0.997093,0.0,0.0,0.0,0.0,0.0,0.0,0.0,0.0,0.0,4.18879020479e-07,0.00109664272891,0.00118530545491,0.0,0.0,0.0,0.0,0.0,0.0,0.0,0.0,0.0,0.03445,-0.007582,9.844646,0.0,0.0,0.0,0.0,0.0,0.0,0.0,0.0,0.0
1660014322699490256,40576,1660014322699490256,imu,-0.001232,-0.002033,-0.076153,0.997093,0.0,0.0,0.0,0.0,0.0,0.0,0.0,0.0,0.0,-0.00215656373035,-0.00164176141418,-0.00430440081444,0.0,0.0,0.0,0.0,0.0,0.0,0.0,0.0,0.0,-0.00187,-0.054687,9.794447,0.0,0.0,0.0,0.0,0.0,0.0,0.0,0.0,0.0
1660014322704415921,40577,1660014322704415921,imu,-0.001233,-0.002029,-0.076157,0.997092,0.0,0.0,0.0,0.0,0.0,0.0,0.0,0.0,0.0,4.20624349731e-06,0.00329596702593,-0.00215099613004,0.0,0.0,0.0,0.0,0.0,0.0,0.0,0.0,0.0,0.057783,-0.023626,9.746665,0.0,0.0,0.0,0.0,0.0,0.0,0.0,0.0,0.0
1660014322709396272,40578,1660014322709396272,imu,-0.001232,-0.002027,-0.076157,0.997092,0.0,0.0,0.0,0.0,0.0,0.0,0.0,0.0,0.0,0.00121063018235,0.000472338455467,0.000561664406584,0.0,0.0,0.0,0.0,0.0,0.0,0.0,0.0,0.0,0.031819,-0.014329,9.796948,0.0,0.0,0.0,0.0,0.0,0.0,0.0,0.0,0.0
1660014322714469654,40579,1660014322714469654,imu,-0.001233,-0.002025,-0.076154,0.997093,0.0,0.0,0.0,0.0,0.0,0.0,0.0,0.0,0.0,-0.00121982806751,0.000803497227741,-2.65115513378e-05,0.0,0.0,0.0,0.0,0.0,0.0,0.0,0.0,0.0,0.024659,-0.019119,9.804104,0.0,0.0,0.0,0.0,0.0,0.0,0.0,0.0,0.0
1660014322719419274,40580,1660014322719419274,imu,-0.001238,-0.002024,-0.076156,0.997093,0.0,0.0,0.0,0.0,0.0,0.0,0.0,0.0,0.0,-0.00242647889917,0.00204882455562,0.000601702259625,0.0,0.0,0.0,0.0,0.0,0.0,0.0,0.0,0.0,0.043434,-0.042836,9.770424,0.0,0.0,0.0,0.0,0.0,0.0,0.0,0.0,0.0
1660014322724364914,40581,1660014322724364914,imu,-0.001243,-0.002018,-0.076156,0.997093,0.0,0.0,0.0,0.0,0.0,0.0,0.0,0.0,0.0,0.000295013003465,0.00143795931743,-0.00308143115427,0.0,0.0,0.0,0.0,0.0,0.0,0.0,0.0,0.0,0.033896,-0.045203,9.775232,0.0,0.0,0.0,0.0,0.0,0.0,0.0,0.0,0.0
1660014322729492633,40582,1660014322729492633,imu,-0.001241,-0.002018,-0.076157,0.997092,0.0,0.0,0.0,0.0,0.0,0.0,0.0,0.0,0.0,0.000281975393952,-0.0016811534954,-0.00127581822992,0.0,0.0,0.0,0.0,0.0,0.0,0.0,0.0,0.0,0.029125,-0.045173,9.775264,0.0,0.0,0.0,0.0,0.0,0.0,0.0,0.0,0.0
1660014322734441136,40583,1660014322734441136,imu,-0.001243,-0.002019,-0.076158,0.997092,0.0,0.0,0.0,0.0,0.0,0.0,0.0,0.0,0.0,-0.00243260500484,0.00111964616845,0.000290056268389,0.0,0.0,0.0,0.0,0.0,0.0,0.0,0.0,0.0,0.024627,-0.026322,9.80881,0.0,0.0,0.0,0.0,0.0,0.0,0.0,0.0,0.0
1660014322739393830,40584,1660014322739393830,imu,-0.001248,-0.002016,-0.076154,0.997093,0.0,0.0,0.0,0.0,0.0,0.0,0.0,0.0,0.0,0.000290649680335,-0.00044381977549,-0.000657099010083,0.0,0.0,0.0,0.0,0.0,0.0,0.0,0.0,0.0,0.024801,-0.024255,9.846951,0.0,0.0,0.0,0.0,0.0,0.0,0.0,0.0,0.0
1660014322744534820,40585,1660014322744534820,imu,-0.00125,-0.002016,-0.076155,0.997093,0.0,0.0,0.0,0.0,0.0,0.0,0.0,0.0,0.0,-0.00122375505833,0.000815208387022,-0.00155030616138,0.0,0.0,0.0,0.0,0.0,0.0,0.0,0.0,0.0,0.022004,-0.050043,9.791949,0.0,0.0,0.0,0.0,0.0,0.0,0.0,0.0,0.0
1660014322749467957,40586,1660014322749467957,imu,-0.001256,-0.002011,-0.076156,0.997093,0.0,0.0,0.0,0.0,0.0,0.0,0.0,0.0,0.0,-0.00182907014951,0.000812171514123,-0.000631268137154,0.0,0.0,0.0,0.0,0.0,0.0,0.0,0.0,0.0,0.050667,-0.043042,9.78944,0.0,0.0,0.0,0.0,0.0,0.0,0.0,0.0,0.0
1660014322754414505,40587,1660014322754414505,imu,-0.001257,-0.00201,-0.076152,0.997093,0.0,0.0,0.0,0.0,0.0,0.0,0.0,0.0,0.0,0.000286111824279,-0.00137767564506,-0.000359223666645,0.0,0.0,0.0,0.0,0.0,0.0,0.0,0.0,0.0,0.002952,-0.040291,9.782622,0.0,0.0,0.0,0.0,0.0,0.0,0.0,0.0,0.0
1660014322759354836,40588,1660014322759354836,imu,-0.001257,-0.002013,-0.076152,0.997093,0.0,0.0,0.0,0.0,0.0,0.0,0.0,0.0,0.0,-0.00062992423363,-0.0023055450353,-5.42099265669e-05,0.0,0.0,0.0,0.0,0.0,0.0,0.0,0.0,0.0,0.034127,-0.033566,9.81107,0.0,0.0,0.0,0.0,0.0,0.0,0.0,0.0,0.0
1660014322764479552,40589,1660014322764479552,imu,-0.001258,-0.002017,-0.076152,0.997093,0.0,0.0,0.0,0.0,0.0,0.0,0.0,0.0,0.0,0.000891217475946,-0.00168982778178,-0.000671044190807,0.0,0.0,0.0,0.0,0.0,0.0,0.0,0.0,0.0,0.033969,-0.050199,9.801402,0.0,0.0,0.0,0.0,0.0,0.0,0.0,0.0,0.0
1660014322769424004,40590,1660014322769424004,imu,-0.001261,-0.002017,-0.07615,0.997093,0.0,0.0,0.0,0.0,0.0,0.0,0.0,0.0,0.0,-0.00121255004453,0.00109760265999,0.00210910822799,0.0,0.0,0.0,0.0,0.0,0.0,0.0,0.0,0.0,0.036363,-0.040543,9.787169,0.0,0.0,0.0,0.0,0.0,0.0,0.0,0.0,0.0
1660014322774379631,40591,1660014322774379631,imu,-0.001263,-0.002015,-0.076146,0.997093,0.0,0.0,0.0,0.0,0.0,0.0,0.0,0.0,0.0,-0.000915617178889,0.000168773338668,0.00149031919499,0.0,0.0,0.0,0.0,0.0,0.0,0.0,0.0,0.0,0.019699,-0.042925,9.799171,0.0,0.0,0.0,0.0,0.0,0.0,0.0,0.0,0.0
1660014322779480881,40592,1660014322779480881,imu,-0.001268,-0.002013,-0.076141,0.997094,0.0,0.0,0.0,0.0,0.0,0.0,0.0,0.0,0.0,-0.00121155520686,0.00141045292841,0.00180664266862,0.0,0.0,0.0,0.0,0.0,0.0,0.0,0.0,0.0,0.031688,-0.038286,9.806282,0.0,0.0,0.0,0.0,0.0,0.0,0.0,0.0,0.0
1660014322784430641,40593,1660014322784430641,imu,-0.001269,-0.002012,-0.07614,0.997094,0.0,0.0,0.0,0.0,0.0,0.0,0.0,0.0,0.0,0.000894359068599,-0.00169920019986,0.000547981025249,0.0,0.0,0.0,0.0,0.0,0.0,0.0,0.0,0.0,0.024411,-0.052526,9.801444,0.0,0.0,0.0,0.0,0.0,0.0,0.0,0.0,0.0
1660014322789380121,40594,1660014322789380121,imu,-0.001269,-0.002011,-0.07614,0.997094,0.0,0.0,0.0,0.0,0.0,0.0,0.0,0.0,0.0,0.00182322329651,0.000769480760619,0.00177826361498,0.0,0.0,0.0,0.0,0.0,0.0,0.0,0.0,0.0,0.01275,-0.026346,9.8208,0.0,0.0,0.0,0.0,0.0,0.0,0.0,0.0,0.0
1660014322794332186,40595,1660014322794332186,imu,-0.001271,-0.00201,-0.076134,0.997094,0.0,0.0,0.0,0.0,0.0,0.0,0.0,0.0,0.0,-0.0012312774274,-0.00105718083452,-0.000345034139827,0.0,0.0,0.0,0.0,0.0,0.0,0.0,0.0,0.0,0.026979,-0.031112,9.808755,0.0,0.0,0.0,0.0,0.0,0.0,0.0,0.0,0.0
1660014322799464655,40596,1660014322799464655,imu,-0.001271,-0.002011,-0.076134,0.997094,0.0,0.0,0.0,0.0,0.0,0.0,0.0,0.0,0.0,0.00151541702963,-0.000479913184421,0.00299049950024,0.0,0.0,0.0,0.0,0.0,0.0,0.0,0.0,0.0,0.026935,-0.035868,9.806333,0.0,0.0,0.0,0.0,0.0,0.0,0.0,0.0,0.0
1660014322804409736,40597,1660014322804409736,imu,-0.00127,-0.002015,-0.076131,0.997094,0.0,0.0,0.0,0.0,0.0,0.0,0.0,0.0,0.0,0.000277210645094,-0.00293021582788,-0.000370707933124,0.0,0.0,0.0,0.0,0.0,0.0,0.0,0.0,0.0,0.012558,-0.028374,9.777893,0.0,0.0,0.0,0.0,0.0,0.0,0.0,0.0,0.0
1660014322809362290,40598,1660014322809362290,imu,-0.00127,-0.002014,-0.07613,0.997095,0.0,0.0,0.0,0.0,0.0,0.0,0.0,0.0,0.0,0.000900502627566,0.000493072966981,-0.00187402983104,0.0,0.0,0.0,0.0,0.0,0.0,0.0,0.0,0.0,0.045797,-0.050074,9.777498,0.0,0.0,0.0,0.0,0.0,0.0,0.0,0.0,0.0
1660014322814478485,40599,1660014322814478485,imu,-0.001269,-0.002013,-0.076129,0.997095,0.0,0.0,0.0,0.0,0.0,0.0,0.0,0.0,0.0,-6.26573201466e-06,0.000485009545837,-3.83099770813e-05,0.0,0.0,0.0,0.0,0.0,0.0,0.0,0.0,0.0,0.031712,-0.03349,9.803938,0.0,0.0,0.0,0.0,0.0,0.0,0.0,0.0,0.0
1660014322819425173,40600,1660014322819425173,imu,-0.001267,-0.002014,-0.076129,0.997095,0.0,0.0,0.0,0.0,0.0,0.0,0.0,0.0,0.0,0.00120806454835,0.000164165669443,0.000254608631281,0.0,0.0,0.0,0.0,0.0,0.0,0.0,0.0,0.0,0.024676,-0.016732,9.804124,0.0,0.0,0.0,0.0,0.0,0.0,0.0,0.0,0.0
1660014322824376818,40601,1660014322824376818,imu,-0.001264,-0.002014,-0.07613,0.997095,0.0,0.0,0.0,0.0,0.0,0.0,0.0,0.0,0.0,-0.000327266688041,-0.00167247920902,-0.00188057481573,0.0,0.0,0.0,0.0,0.0,0.0,0.0,0.0,0.0,0.022403,-0.012101,9.823239,0.0,0.0,0.0,0.0,0.0,0.0,0.0,0.0,0.0
1660014322829500487,40602,1660014322829500487,imu,-0.001268,-0.002014,-0.076134,0.997094,0.0,0.0,0.0,0.0,0.0,0.0,0.0,0.0,0.0,-0.00153173585814,0.000513720212032,-0.00246450962357,0.0,0.0,0.0,0.0,0.0,0.0,0.0,0.0,0.0,0.022369,-0.016876,9.823199,0.0,0.0,0.0,0.0,0.0,0.0,0.0,0.0,0.0
1660014322834451155,40603,1660014322834451155,imu,-0.001268,-0.002011,-0.076136,0.997094,0.0,0.0,0.0,0.0,0.0,0.0,0.0,0.0,0.0,-0.000617549849233,0.00144377126383,-0.00307120352486,0.0,0.0,0.0,0.0,0.0,0.0,0.0,0.0,0.0,0.002968,-0.025762,9.761284,0.0,0.0,0.0,0.0,0.0,0.0,0.0,0.0,0.0
1660014322839393792,40604,1660014322839393792,imu,-0.001262,-0.002009,-0.076139,0.997094,0.0,0.0,0.0,0.0,0.0,0.0,0.0,0.0,0.0,0.00453654705825,-0.0010835876661,-0.0019109784513,0.0,0.0,0.0,0.0,0.0,0.0,0.0,0.0,0.0,0.012487,-0.033046,9.768312,0.0,0.0,0.0,0.0,0.0,0.0,0.0,0.0,0.0
1660014322844370651,40605,1660014322844370651,imu,-0.001263,-0.00201,-0.076143,0.997094,0.0,0.0,0.0,0.0,0.0,0.0,0.0,0.0,0.0,-0.00184552860435,-0.00103696992178,-0.00247053100949,0.0,0.0,0.0,0.0,0.0,0.0,0.0,0.0,0.0,0.017584,-0.028901,9.839799,0.0,0.0,0.0,0.0,0.0,0.0,0.0,0.0,0.0
1660014322849449341,40606,1660014322849449341,imu,-0.001265,-0.002013,-0.076143,0.997094,0.0,0.0,0.0,0.0,0.0,0.0,0.0,0.0,0.0,-0.000329326176559,-0.00198550401036,-0.00157502002358,0.0,0.0,0.0,0.0,0.0,0.0,0.0,0.0,0.0,0.019972,-0.021654,9.82793,0.0,0.0,0.0,0.0,0.0,0.0,0.0,0.0,0.0
1660014322854404129,40607,1660014322854404129,imu,-0.001267,-0.002011,-0.076147,0.997093,0.0,0.0,0.0,0.0,0.0,0.0,0.0,0.0,0.0,-0.00151859352887,0.0029976029903,-0.00244307698036,0.0,0.0,0.0,0.0,0.0,0.0,0.0,0.0,0.0,0.031314,-0.078672,9.784491,0.0,0.0,0.0,0.0,0.0,0.0,0.0,0.0,0.0
1660014322859349699,40608,1660014322859349699,imu,-0.001263,-0.002006,-0.076151,0.997093,0.0,0.0,0.0,0.0,0.0,0.0,0.0,0.0,0.0,0.00271238128394,-0.000436541752509,-0.00372067544611,0.0,0.0,0.0,0.0,0.0,0.0,0.0,0.0,0.0,0.049213,0.037454,9.875894,0.0,0.0,0.0,0.0,0.0,0.0,0.0,0.0,0.0
